{"charset":"UTF-8","data":[{"address":"百里杜鹃风景名胜区党工委","id":"f92c64246cde491eba6c2ba53f41e7ad","lat":27.209884,"lng":105.931775,"name":"百里杜鹃风景名胜区党工委"},{"address":"贵州百里杜鹃管理区人大工委","id":"f2cd0ec7392f4b6f90ad46d92d04a8f0","lat":0.0,"lng":0.0,"name":"百里杜鹃管理区人大工委"},{"address":"贵州省毕节市百里杜鹃管理区管委会","id":"8f5559fe59fa4120a3f637833282fa50","lat":27.228697,"lng":105.846785,"name":"贵州省毕节市百里杜鹃管理区管委会"},{"address":"贵州省纳雍县左鸠戛乡","id":"b0c97c6f3a6644bea744fd62ed94a1dc","lat":26.831903,"lng":105.06115,"name":"贵州省纳雍县左鸠戛乡"},{"address":"贵州省毕节市黔西县人民政府","id":"32151ba49f8049ecb650bde4767cf3ef","lat":27.013891,"lng":106.03925,"name":"贵州省毕节市黔西县人民政府"},{"address":"中共贵州省赫章县委员会","id":"57e9f72d0010403194e79c18fee83dc5","lat":27.12853,"lng":104.732765,"name":"中共贵州省赫章县委员会"},{"address":"贵州省黔西县人民政府","id":"fff9e49eab4249e89e24fe62c1b12c85","lat":27.013891,"lng":106.03925,"name":"贵州省黔西县人民政府"},{"address":"贵州省黔西县大关镇","id":"3537b9d60c144fbaa9bddeaa1f58f192","lat":26.888222,"lng":106.17235,"name":"贵州省黔西县大关镇"},{"address":"政协毕节市委员会贵州百里杜鹃管理区工作委员会","id":"e4366bc6ce5e47da8d9a4d5d865f5537","lat":27.304165,"lng":105.31162,"name":"政协毕节市委员会贵州百里杜鹃管理区工作委员会"},{"address":"贵州省百里杜鹃管理区党工委","id":"14ebf8c4036846249f7e6c46902b058b","lat":27.228697,"lng":105.846785,"name":"贵州省百里杜鹃管理区党工委"},{"address":"贵州省毕节市百里杜鹃管理区党工委","id":"de9865de965a4e7aadc16210d53d6f4c","lat":0.0,"lng":0.0,"name":"贵州省毕节市百里杜鹃管理区党工委"},{"address":"贵州省毕节市黔西县人大常委会","id":"a1dc563516494dd9a7d39a9a464821a7","lat":27.013453,"lng":106.040092,"name":"贵州省毕节市黔西县人大常委会"},{"address":"贵州百里杜鹃管理区管理委员会","id":"e1a44771a77b4f86b34d4b1886a53b02","lat":27.228697,"lng":105.846785,"name":"贵州百里杜鹃管理区管理委员会"},{"address":"贵州省毕节市赫章县委","id":"329fe95163e64f00a2710693512d1e5a","lat":27.128449,"lng":104.732729,"name":"贵州省毕节市赫章县委"},{"address":"贵州省黔西县人大常委会","id":"6c7082b6e60847aeb5f0356cb68283ef","lat":27.013453,"lng":106.040092,"name":"贵州省黔西县人大常委会"},{"address":"贵州省赫章县人大常委会","id":"f718b88027c044a19c9b440b97e7dd6b","lat":27.130683,"lng":104.732424,"name":"贵州省赫章县人大常委会"},{"address":"毕节市人大常委会贵州百里杜鹃工作委员会","id":"683f948e8b43495a8a3584325a8e572a","lat":27.304165,"lng":105.31162,"name":"毕节市人大常委会贵州百里杜鹃工作委员会"},{"address":"贵州省赫章县政协","id":"0477181a1ea04b7487c399a2989df837","lat":27.130968,"lng":104.732623,"name":"贵州省赫章县政协"},{"address":"贵州省金沙县人民法院党组","id":"725cae309e3c4c749d7130c5448dfd23","lat":27.472286,"lng":106.245429,"name":"贵州省金沙县人民法院党组"},{"address":"贵州省毕节市文体广电新闻出版局","id":"0b882ded908e43ae810f33def6a79643","lat":27.309517,"lng":105.291054,"name":"贵州省毕节市文体广电新闻出版局"},{"address":"民盟贵州省毕节市委员会","id":"ca9d1c7ada8847b69d85b0293b2c476a","lat":27.288304,"lng":105.298841,"name":"民盟贵州省毕节市委员会"},{"address":"贵州省黔西县委","id":"44f389583f13427e8f21701437e41501","lat":27.014407,"lng":106.038873,"name":"贵州省黔西县委"},{"address":"贵州省毕节市社会科学界联合会","id":"9ff403859c1e4c4ab57c05b25f417508","lat":0.0,"lng":0.0,"name":"贵州省毕节市社会科学界联合会"},{"address":"贵州省赫章县委","id":"3c3b730376cd4027b7a029cf14b9a84c","lat":27.128449,"lng":104.732729,"name":"贵州省赫章县委"},{"address":"贵州省赫章县人民政府","id":"af0c7a69e9704476b6eb5bd397ab7d5b","lat":27.129031,"lng":104.73343,"name":"贵州省赫章县人民政府"},{"address":"中共贵贵州省毕节市赫章县委","id":"218a2f997ed44edb9d5da33f8f0b24d0","lat":0.0,"lng":0.0,"name":"中共贵贵州省毕节市赫章县委"},{"address":"贵州百里杜鹃管理区党工委","id":"5cad56183d904954afaeba67bd0bd767","lat":27.228697,"lng":105.846785,"name":"贵州百里杜鹃管理区党工委"},{"address":"贵州省黔西县委","id":"e7fe2d42cd8b44ed8725011c17e7c8ba","lat":27.014407,"lng":106.038873,"name":"贵州省黔西县委"}],"type":"leadershipLocation","version":"ops-dvp-dev.1.0.0"}