{"charset":"UTF-8","data":[{"address":"贵州省毕节市七星关区田坝镇","id":"e9d1dfa3-3058-4c8d-8771-949486b1685a","lat":27.101406,"lng":105.207807,"name":"贵州省毕节市七星关区田坝镇"},{"address":"贵州省金沙县政协","id":"2481cfe4-5ead-4fc2-9bd7-d9fb0d755260","lat":27.46536,"lng":106.226713,"name":"贵州省金沙县政协"},{"address":"贵州省纳雍县厍东关彝族白族苗族乡党委","id":"bd492b9d-659b-4201-a847-35bbdaa0c2af","lat":27.072082,"lng":105.237721,"name":"贵州省纳雍县厍东关彝族白族苗族乡党委"},{"address":"贵州省纳雍县化作苗族彝族乡党委","id":"255a082e-1a23-4916-9456-aa0805c22ca8","lat":26.931508376446832,"lng":105.26297105611171,"name":"贵州省纳雍县化作苗族彝族乡党委"},{"address":"贵州省金沙县高坪镇","id":"8005520d-0c3d-484f-8a4b-c6108857641d","lat":27.271074,"lng":106.424513,"name":"贵州省金沙县高坪镇"},{"address":"贵州省金沙县高坪镇党委","id":"5a1adc43-83b2-42dd-b2af-172235be3534","lat":27.251097,"lng":106.411865,"name":"贵州省金沙县高坪镇党委"},{"address":"贵州省黔西县县委","id":"48a39112-29ad-42f6-a9b6-dcd20c05ff85","lat":27.014407,"lng":106.038873,"name":"贵州省黔西县县委"},{"address":"贵州省毕节市八寨镇党委","id":"823750fc-3322-4980-8441-9fa6ed2c7aa2","lat":27.418563140140737,"lng":105.38147849862823,"name":"贵州省毕节市八寨镇党委"},{"address":"贵州省金沙县后山镇政府","id":"3617eea6-7d43-4e56-9c6a-7b22b1f238e7","lat":27.277827,"lng":106.589216,"name":"贵州省金沙县后山镇政府"},{"address":"贵州省黔西县中坪镇","id":"46fd9b1f-2123-42d0-aa18-595ab9acc5b2","lat":27.181712,"lng":106.261812,"name":"贵州省黔西县中坪镇"},{"address":"贵州省织金县马场镇","id":"24d4f7d3-b135-419a-9538-ee899ea9f843","lat":26.95254,"lng":105.495333,"name":"贵州省织金县马场镇"},{"address":"贵州省大方县三元乡","id":"6bbcf361-131a-44a0-bf83-68c0bf9ce21d","lat":27.33047,"lng":105.801529,"name":"贵州省大方县三元乡"},{"address":"贵州省赫章县野马川镇","id":"1a2100d7-2247-4f85-8532-a0c15bc6acc2","lat":27.135884,"lng":104.844752,"name":"贵州省赫章县野马川镇"},{"address":"贵州省大方县纪委","id":"51b4beb3-97da-47c4-ac4f-28618916aeef","lat":27.146388,"lng":105.617589,"name":"贵州省大方县纪委"},{"address":"贵州省黔西县监察局","id":"b24489f8-b5d4-40dd-a584-546702790b49","lat":27.46536,"lng":106.226713,"name":"贵州省黔西县监察局"},{"address":"贵州省金沙县长坝镇人民政府","id":"3124ec5f-39cf-4946-84cf-b15ab8652153","lat":27.316928,"lng":106.484462,"name":"贵州省金沙县长坝镇人民政府"},{"address":"贵州省大方县安乐乡党委","id":"2d866b13-2d5e-4fbc-9641-b6f19e87b8db","lat":27.24577291514496,"lng":105.66515062264732,"name":"贵州省大方县安乐乡党委"},{"address":"贵州省毕节市七星关区妇女联合会","id":"7803d717-4ad4-47e8-8665-4bf7523f71b4","lat":27.203935,"lng":105.319593,"name":"贵州省毕节市七星关区妇女联合会"},{"address":"贵州省毕节市工业和能源委员会","id":"488090ea-4de5-4367-b257-7f4134b40d7a","lat":27.289508,"lng":105.298389,"name":"贵州省毕节市工业和能源委员会"},{"address":"贵州省大方县对江镇","id":"77b73dbd-7016-4e22-91ce-e4e28aabd64d","lat":27.078353,"lng":105.534323,"name":"贵州省大方县对江镇"},{"address":"贵州省黔西县文峰街道办事处党工委","id":"d6a3cdac-4c5a-485f-aad5-c175e886db7f","lat":27.086384569459483,"lng":106.1405027568135,"name":"贵州省黔西县文峰街道办事处党工委"},{"address":"贵州省纳雍县人大常委会","id":"09742086-9006-40ec-9e5a-99c029c6c68a","lat":26.783496,"lng":105.388909,"name":"贵州省纳雍县人大常委会"},{"address":"贵州省纳雍县昆寨苗族彝族白族乡党委","id":"7d9904b5-eecb-48d4-9c34-9f42a708c4d2","lat":26.850039773702793,"lng":105.12783135054099,"name":"贵州省纳雍县昆寨苗族彝族白族乡党委"},{"address":"贵州省威宁自治县草海镇","id":"feb3b6f4-fe2a-42c0-bb60-4bf429e536ac","lat":26.874114,"lng":104.288682,"name":"贵州省威宁自治县草海镇"},{"address":"贵州省赫章县平山乡","id":"e1ab441a-214f-4252-8596-d066dff5fc9b","lat":27.162306,"lng":104.89185,"name":"贵州省赫章县平山乡"},{"address":"贵州省金沙县政法委员会","id":"59fc433a-5d41-4c3d-a62d-f8db4c140fdb","lat":27.510859,"lng":106.162285,"name":"贵州省金沙县政法委员会"},{"address":"贵州省金沙县长坝镇党委","id":"b26ab889-9fc1-4dba-8cc9-7dac9fce7ebb","lat":27.471542677861745,"lng":106.2268521592366,"name":"贵州省金沙县长坝镇党委"},{"address":"贵州省金沙县化觉镇人大主席团","id":"8ad20d93-71fc-4cc5-a3a7-9fb20b6f533b","lat":27.705454,"lng":105.961792,"name":"贵州省金沙县化觉镇人大主席团"},{"address":"贵州省金沙县后山镇","id":"41cc28cd-0230-4b0e-b240-426301fd2e7c","lat":27.277827,"lng":106.589216,"name":"贵州省金沙县后山镇"},{"address":"贵州省金沙县源村镇党委","id":"e51d7512-112c-48bf-bc21-87eba4931fa8","lat":27.454961,"lng":106.673058,"name":"贵州省金沙县源村镇党委"},{"address":"贵州省金沙县纪律检查委员会第二纪律检查工作委员会","id":"f936e6ca-315c-421d-a3ab-50f26d9163e9","lat":27.387477292850296,"lng":106.60455594499076,"name":"贵州省金沙县纪律检查委员会第二纪律检查工作委员会"},{"address":"贵州省威宁自治县秀水镇","id":"1b31b2e2-98df-4bf9-b851-850dd5eb549e","lat":26.913721,"lng":103.959912,"name":"贵州省威宁自治县秀水镇"},{"address":"贵州省纳雍县姑开乡党委","id":"de2ccca6-0e74-402c-8db7-14fb82868d6f","lat":27.01277,"lng":105.13809,"name":"贵州省纳雍县姑开乡党委"},{"address":"贵州省赫章县委统战部","id":"2067d5fc-6763-475f-bcf9-a6b109c6b94b","lat":27.15332246260986,"lng":104.59803187829694,"name":"贵州省赫章县委统战部"},{"address":"贵州省金沙县高坪镇政法委","id":"c71e701d-c05e-4cb1-93ce-ff36c22c012c","lat":27.251097,"lng":106.411865,"name":"贵州省金沙县高坪镇政法委"},{"address":"贵州省毕节市七星关区鸭池镇","id":"3501dd00-4cce-4f7b-92f7-c45cae15c4a2","lat":27.274659,"lng":105.363888,"name":"贵州省毕节市七星关区鸭池镇"},{"address":"贵州省纳雍县百兴镇党委","id":"3f192c5d-f618-4a03-98f0-78b69c71100b","lat":26.558134,"lng":105.280807,"name":"贵州省纳雍县百兴镇党委"},{"address":"贵州省金沙县人民法院党组","id":"3eb0969e-7eea-4b85-99bc-29b0ace0a2ee","lat":27.472286,"lng":106.245429,"name":"贵州省金沙县人民法院党组"},{"address":"贵州省毕节市杨家湾镇党委","id":"1af255e1-dc5f-4a65-af02-e3d7c8d704a9","lat":38.966320148851025,"lng":111.06631518970228,"name":"贵州省毕节市杨家湾镇党委"},{"address":"贵州省威宁自治县猴场镇人民政府","id":"aaf95fdc-045b-4450-8f49-7eed9b65fefb","lat":26.70151,"lng":104.734045,"name":"贵州省威宁自治县猴场镇人民政府"},{"address":"贵州省织金县红十字会","id":"132ba588-6cef-4fcf-9521-e8253612bbf7","lat":26.66889,"lng":105.776668,"name":"贵州省织金县红十字会"},{"address":"贵州省毕节市七星关区大新桥街道办事处","id":"edcb4d88-5606-4d78-89a5-facc20f50553","lat":27.329361,"lng":105.284508,"name":"贵州省毕节市七星关区大新桥街道办事处"},{"address":"贵州省纳雍县纪委监察局","id":"56e5e83c-1ea6-466e-958d-077701f08b17","lat":27.146388,"lng":105.617589,"name":"贵州省纳雍县纪委监察局"},{"address":"贵州省纳雍县猪场苗族彝族乡人民政府","id":"3f698e7b-0854-49ae-86b8-a5fcd0c3e8a4","lat":26.808889,"lng":105.131368,"name":"贵州省纳雍县猪场苗族彝族乡人民政府"},{"address":"黔西县人民政府","id":"b41b9d45-f40a-43bd-8a8b-ce967f02f2c0","lat":27.013891,"lng":106.03925,"name":"黔西县人民政府"},{"address":"贵州省金沙县鼓场街道办事处","id":"84ab8449-c137-46d0-9e10-d7645c40d4f6","lat":27.46539,"lng":106.224565,"name":"贵州省金沙县鼓场街道办事处"},{"address":"贵州省纳雍县居仁街道","id":"dbaafebc-9a30-49d7-be23-f34cedd4c395","lat":26.776902,"lng":105.441498,"name":"贵州省纳雍县居仁街道"},{"address":"贵州省金沙县化觉镇人民政府","id":"6cc0b729-18c2-46fa-bcd8-34b09b87259e","lat":27.198848,"lng":106.424405,"name":"贵州省金沙县化觉镇人民政府"},{"address":"贵州省赫章县委","id":"a63065c3-cd8c-4d53-b67f-9a7542ef8d7a","lat":27.12853,"lng":104.732765,"name":"贵州省赫章县委"},{"address":"贵州省大方县六龙镇人大","id":"c8d82f35-f45a-47aa-8416-4f79a7bebdad","lat":26.9894,"lng":105.356445,"name":"贵州省大方县六龙镇人大"},{"address":"贵州省大方县理化乡","id":"01786c2b-e66c-43b1-97e9-f343419fe92c","lat":27.042576,"lng":105.676219,"name":"贵州省大方县理化乡"},{"address":"贵州省赫章县辅处乡","id":"ec0f6e95-0fbe-4993-a69f-a508b792906b","lat":27.150756,"lng":104.326485,"name":"贵州省赫章县辅处乡"},{"address":"贵州省金沙县人民政府党组","id":"7d43ef7f-2a40-4c05-a6c0-8c75d42fa167","lat":27.464878,"lng":106.22661,"name":"贵州省金沙县人民政府党组"},{"address":"贵州省毕节市七星关区野角乡委员会","id":"693f1fec-fb85-4356-a04e-b9a98222c45b","lat":27.315507,"lng":105.060999,"name":"贵州省毕节市七星关区野角乡委员会"},{"address":"贵州省毕节市七星关区碧海街道办事处","id":"74a06da0-5571-4c58-ad3a-f0632c33daf7","lat":27.363493,"lng":105.431819,"name":"贵州省毕节市七星关区碧海街道办事处"},{"address":"贵州省威宁自治县二塘镇","id":"07ae88ff-6e6a-4df7-b3ef-755ff0bdcb93","lat":26.759653,"lng":104.552098,"name":"贵州省威宁自治县二塘镇"},{"address":"贵州省毕节金海湖新区（贵州毕节经济开发区）岔河镇","id":"0cd1e8a7-9b90-47de-b075-8415a1612664","lat":27.234485,"lng":105.437852,"name":"贵州省毕节金海湖新区（贵州毕节经济开发区）岔河镇"},{"address":"贵州省黔西县永燊乡","id":"f6dcaa12-faca-44a4-8419-ea01291dd220","lat":27.085607,"lng":106.189383,"name":"贵州省黔西县永燊乡"},{"address":"贵州省纳雍县左鸠戛彝族苗族乡","id":"61368add-3bc4-45b4-9e4d-bda6449081bb","lat":26.832922,"lng":105.061212,"name":"贵州省纳雍县左鸠戛彝族苗族乡"},{"address":"贵州省毕节市威宁自治县东风镇","id":"b5fac556-c5d0-4302-acde-bdaa65eaaff2","lat":26.801878,"lng":104.595989,"name":"贵州省毕节市威宁自治县东风镇"},{"address":"兼任贵州省威宁自治县城市管理局","id":"e7dbb412-656f-4c06-9e58-0590b9da7c10","lat":26.873048,"lng":104.286627,"name":"兼任贵州省威宁自治县城市管理局"},{"address":"贵州省毕节市七星关区工商业联合会","id":"6cbb1289-2570-412d-b682-bf5bb193a928","lat":27.310852,"lng":105.295188,"name":"贵州省毕节市七星关区工商业联合会"},{"address":"贵州省毕节市七星关区团委","id":"9acaadec-756c-4881-9b5f-03d7c50ce2f4","lat":27.304322,"lng":105.297,"name":"贵州省毕节市七星关区团委"},{"address":"贵州省大方县瓢井镇人民政府","id":"2c51ab7f-ea68-4e14-831a-e28883e202ae","lat":27.454125,"lng":105.702917,"name":"贵州省大方县瓢井镇人民政府"},{"address":"贵州省织金县马场镇民生项目监督特派组","id":"f45aa933-e62e-46fe-bbfa-1048bb5c1db9","lat":26.615333373403335,"lng":105.73204873020813,"name":"贵州省织金县马场镇民生项目监督特派组"},{"address":"贵州省赫章县双坪乡","id":"882d3dda-e24e-455f-96ee-d513a22e061a","lat":27.073775,"lng":104.467403,"name":"贵州省赫章县双坪乡"},{"address":"贵州省金沙县五龙街道党工委","id":"4b74e3fc-4e62-460a-a98a-7c9fb845f42e","lat":27.471542677861745,"lng":106.2268521592366,"name":"贵州省金沙县五龙街道党工委"},{"address":"贵州省金沙县五龙街道纪工委","id":"4ba1c459-261c-4ac5-ae29-2276dc7bc8a2","lat":27.471542677861745,"lng":106.2268521592366,"name":"贵州省金沙县五龙街道纪工委"},{"address":"贵州省毕节市七星关区人民政府应急办公室","id":"a0370894-e095-4246-8a75-f04a1b040fa5","lat":27.304165,"lng":105.31162,"name":"贵州省毕节市七星关区人民政府应急办公室"},{"address":"贵州省纳雍县张家湾镇纪委","id":"361f931e-8ef2-4545-b6c9-f0768f86677c","lat":26.624678808006916,"lng":105.4018145354853,"name":"贵州省纳雍县张家湾镇纪委"},{"address":"贵州省纳雍县纪委","id":"411858ff-f85c-4a48-8eca-1075727ee47c","lat":27.146388,"lng":105.617589,"name":"贵州省纳雍县纪委"},{"address":"赫章县安乐溪乡党委","id":"cd0798d6-8c07-4989-9497-df7dbff1dc64","lat":27.360697882292936,"lng":104.454280620856,"name":"赫章县安乐溪乡党委"},{"address":"民建贵州省黔西工作委员会","id":"7b1810d8-45fe-48bc-85f3-7b6876819cef","lat":27.086384569459483,"lng":106.1405027568135,"name":"民建贵州省黔西工作委员会"},{"address":"贵州省威宁自治县盐仓镇","id":"84bf2310-a53a-42b0-846a-c16eb1c59ecb","lat":26.920965,"lng":104.409209,"name":"贵州省威宁自治县盐仓镇"},{"address":"贵州省毕节市七星关区龙场营镇","id":"ccaf853f-177a-4b48-8e24-265ec1a0d300","lat":27.666196,"lng":105.797948,"name":"贵州省毕节市七星关区龙场营镇"},{"address":"贵州省赫章县第二纪工委监察分局","id":"b51a54df-83db-4280-bd08-84ae1ca2cb93","lat":27.15332246260986,"lng":104.59803187829694,"name":"贵州省赫章县第二纪工委监察分局"},{"address":"贵州省毕节市七星关区市西街道办事处","id":"90c0b3e3-d2e7-46d1-9018-7a478367e388","lat":27.31392,"lng":105.295746,"name":"贵州省毕节市七星关区市西街道办事处"},{"address":"贵州省毕节市七星关区环保局","id":"1b72f684-266f-4370-90ec-492545ad58d6","lat":27.304165,"lng":105.31162,"name":"贵州省毕节市七星关区环保局"},{"address":"贵州省赫章县财神镇党委","id":"94e5a3ba-86f5-44a8-9011-62d332b47384","lat":27.22715651494218,"lng":104.60759971051782,"name":"贵州省赫章县财神镇党委"},{"address":"贵州省大方县兴隆乡党委","id":"28e47cce-805e-4747-b2f9-6341b9405cef","lat":27.471920963791074,"lng":105.65301972538347,"name":"贵州省大方县兴隆乡党委"},{"address":"贵州省毕节市七星关区人民政府","id":"497c41a1-5ccb-401e-8b5e-8386769b1c2b","lat":27.304165,"lng":105.31162,"name":"贵州省毕节市七星关区人民政府"},{"address":"贵州省纳雍县骔岭镇民生项目监督特派组","id":"27db69e6-80bf-4aa4-83f5-6c8a4eb1f2e5","lat":26.795102083008498,"lng":105.26868668571373,"name":"贵州省纳雍县骔岭镇民生项目监督特派组"},{"address":"贵州省大方县金龙新区","id":"50848104-9a1f-4437-bb49-b072bd95fe83","lat":27.467663,"lng":106.252325,"name":"贵州省大方县金龙新区"},{"address":"贵州省大方县投资促进局","id":"bc39692e-3b4c-4e08-aaf4-5b520c4e12a9","lat":27.289757,"lng":105.299389,"name":"贵州省大方县投资促进局"},{"address":"贵州省赫章县兴发乡","id":"dba35a6c-df9c-4bdb-a826-aecd10b02cfa","lat":26.949626,"lng":104.821424,"name":"贵州省赫章县兴发乡"},{"address":"中坪镇人民政府武装部","id":"3531b3cf-aa8e-405a-8bc7-e665ddae57be","lat":0.0,"lng":0.0,"name":"中坪镇人民政府武装部"},{"address":"贵州省毕节市大方县绿塘乡人大","id":"f037280a-abf5-4227-8085-905d37300094","lat":27.063499,"lng":105.462448,"name":"贵州省毕节市大方县绿塘乡人大"},{"address":"贵州省金沙县大田彝族苗族布依族乡纪委","id":"ff125009-0129-4d0b-b924-cc60efd2d590","lat":27.377874,"lng":106.011208,"name":"贵州省金沙县大田彝族苗族布依族乡纪委"},{"address":"贵州省威宁自治县委组织部","id":"4d4d63e6-04f3-4980-b222-4e8c71b4c9ed","lat":27.128449,"lng":104.732729,"name":"贵州省威宁自治县委组织部"},{"address":"贵州省威宁自治县委离退休干部工作局","id":"0e5395a3-300b-4c00-8137-a1789c9be3e8","lat":26.865328,"lng":104.286282,"name":"贵州省威宁自治县委离退休干部工作局"},{"address":"贵州省金沙县工商业联合会","id":"86f2fb02-03c6-47e7-a539-0235044771cc","lat":27.01195,"lng":106.043808,"name":"贵州省金沙县工商业联合会"},{"address":"贵州省赫章县可乐彝族苗族乡","id":"647ef551-ed6e-4082-b1a2-6cf35c9743c8","lat":27.242971,"lng":104.408155,"name":"贵州省赫章县可乐彝族苗族乡"},{"address":"中国共产主义青年团金沙县委委员会","id":"b669127f-04ec-44b5-9163-03559780f554","lat":27.465360959143702,"lng":106.22671266856044,"name":"中国共产主义青年团金沙县委委员会"},{"address":"贵州省毕节市农业学校","id":"e2356c85-3fc7-49b4-8b81-8ef14a7b403b","lat":27.302958,"lng":105.323015,"name":"贵州省毕节市农业学校"},{"address":"贵州省金沙县总工会","id":"1c5fd6c8-5d57-4226-8f82-2e3fcff01828","lat":27.467017,"lng":106.23084,"name":"贵州省金沙县总工会"},{"address":"贵州省金沙县岩孔镇党委","id":"c0295423-a7eb-4eb3-8660-1c579213e758","lat":27.55933464209501,"lng":106.25839158124079,"name":"贵州省金沙县岩孔镇党委"},{"address":"大方县红旗街道办事处","id":"b115e2ec-1c12-4546-bbac-b043f7edbf0b","lat":27.149723,"lng":105.614924,"name":"大方县红旗街道办事处"},{"address":"贵州省黔西县重新镇","id":"53a9e7a3-039a-4b1f-9342-be64116748d6","lat":27.270673,"lng":106.206897,"name":"贵州省黔西县重新镇"},{"address":"贵州省大方县顺德新区","id":"efcb159e-2c05-4c26-b61c-16a878aea13c","lat":27.155188,"lng":105.602042,"name":"贵州省大方县顺德新区"},{"address":"贵州百里杜鹃管理区黄泥彝族苗族满族乡人民政府","id":"eae2ff73-a3eb-46d7-8318-db709a7ff51a","lat":25.698024856615813,"lng":100.16742694064195,"name":"贵州百里杜鹃管理区黄泥彝族苗族满族乡人民政府"},{"address":"贵州省毕节金海湖新区纪工委","id":"f288ab5e-26d7-4661-a3b1-966dc81defd8","lat":40.038681701253104,"lng":116.43954432984577,"name":"贵州省毕节金海湖新区纪工委"},{"address":"贵州省纳雍县厍东关彝族白族苗族乡","id":"9ae31b98-9bf8-4d2f-ab6d-9b14a9d27b70","lat":27.071537,"lng":105.238411,"name":"贵州省纳雍县厍东关彝族白族苗族乡"},{"address":"贵州省织金县自强苗族乡人民政府","id":"9674899f-4c95-41eb-8cc9-e01b5184d2f9","lat":26.691797,"lng":106.115067,"name":"贵州省织金县自强苗族乡人民政府"},{"address":"贵州省纳雍县水东乡人民政府","id":"8b5b21a9-f274-4ffb-8204-55e209c28e97","lat":26.718381738937218,"lng":105.567424927436,"name":"贵州省纳雍县水东乡人民政府"},{"address":"贵州省赫章县哲庄乡","id":"d87957b1-ccdc-41e8-ab6b-648e03e8ad7a","lat":27.319907,"lng":104.834231,"name":"贵州省赫章县哲庄乡"},{"address":"贵州百里杜鹃管理区金坡苗族彝族满族乡党委","id":"587de4ed-b5eb-4442-be82-c1585909fed8","lat":27.1642705410056,"lng":105.95782439129742,"name":"贵州百里杜鹃管理区金坡苗族彝族满族乡党委"},{"address":"贵州省毕节市何官屯镇","id":"95aa65eb-8789-4470-98cd-bc50c3663554","lat":27.370725,"lng":105.263744,"name":"贵州省毕节市何官屯镇"},{"address":"民盟贵州省毕节市七星关区工作委员会","id":"ec4f3b8e-ae69-4468-80d7-541f280c314a","lat":27.288304,"lng":105.298841,"name":"民盟贵州省毕节市七星关区工作委员会"},{"address":"贵州省金沙县源村镇人大","id":"5c46fd22-95e4-4aa7-b062-6b0871cf3bf9","lat":27.454961,"lng":106.673058,"name":"贵州省金沙县源村镇人大"},{"address":"贵州省毕节市七星关区城市综合执法大队","id":"bd28a8d9-4909-49e1-adab-e1f2d635d960","lat":27.124746,"lng":104.724106,"name":"贵州省毕节市七星关区城市综合执法大队"},{"address":"贵州省威宁自治县财政局党组成员","id":"f43bd679-a0d4-432f-bad5-ba16caf10df0","lat":26.875286,"lng":104.28968,"name":"贵州省威宁自治县财政局党组成员"},{"address":"贵州省七星关区朱昌镇人民政府","id":"23bc1c86-6b64-4213-aba6-b24700d7c69a","lat":27.188428,"lng":105.312445,"name":"贵州省七星关区朱昌镇人民政府"},{"address":"贵州省毕节金海湖新区（贵州省毕节经济开发区）响水乡党委","id":"f7c2a1b8-4d33-4991-bfdd-33150f59b52e","lat":27.234485,"lng":105.437852,"name":"贵州省毕节金海湖新区（贵州省毕节经济开发区）响水乡党委"},{"address":"贵州省毕节市七星关区团区委","id":"5d6e5930-d302-4005-b5c8-0056bd3a5155","lat":27.464053316004616,"lng":105.42355760083845,"name":"贵州省毕节市七星关区团区委"},{"address":"贵州省毕节市大方县教育局党组","id":"d71fc73d-837e-456c-a810-80414388d080","lat":27.147304,"lng":105.610401,"name":"贵州省毕节市大方县教育局党组"},{"address":"贵州省河镇彝族苗族乡","id":"ab5aea98-494e-4b4d-8a06-e4e5221133d7","lat":27.33583,"lng":104.34609,"name":"贵州省河镇彝族苗族乡"},{"address":"贵州省纳雍县董地苗族彝族乡武装部","id":"abaea53f-f4ff-4d20-826c-766d902241a5","lat":26.950112192411286,"lng":105.24883598625574,"name":"贵州省纳雍县董地苗族彝族乡武装部"},{"address":"贵州毕节金海湖新区（贵州毕节经济开发区）响水乡人大","id":"d14e0835-55d2-448f-86f0-e1b312d015c0","lat":27.234485,"lng":105.437852,"name":"贵州毕节金海湖新区（贵州毕节经济开发区）响水乡人大"},{"address":"贵州毕节金海湖新区（贵州毕节经济开发区）响水乡党委","id":"c2833714-fb9c-4bb0-939d-3888eae156c8","lat":27.234485,"lng":105.437852,"name":"贵州毕节金海湖新区（贵州毕节经济开发区）响水乡党委"},{"address":"中国农工民主党毕节市委员会","id":"a0a618df-1a1a-4137-90cb-f6b863ab6191","lat":30.857310062343007,"lng":121.35168708562244,"name":"中国农工民主党毕节市委员会"},{"address":"贵州省大方县红旗街道党工委","id":"034d9ab8-bfd9-4a2c-805b-346c279a2ec5","lat":27.253059626031487,"lng":105.73720221998492,"name":"贵州省大方县红旗街道党工委"},{"address":"贵州省金沙县大田彝族苗族布依族乡人民政府","id":"96fb2286-3bed-411b-8cbd-efb96425f547","lat":27.40122,"lng":106.055672,"name":"贵州省金沙县大田彝族苗族布依族乡人民政府"},{"address":"贵州黔西经济开发区管委会","id":"e0cfc331-9d13-41cf-bbd9-5cadf670ad30","lat":27.226978,"lng":105.631199,"name":"贵州黔西经济开发区管委会"},{"address":"贵州省纳雍县昆寨苗族彝族白族乡纪委","id":"b98301c2-67aa-4504-baad-32f8b9282df6","lat":26.854902,"lng":105.258325,"name":"贵州省纳雍县昆寨苗族彝族白族乡纪委"},{"address":"贵州省黔西县妇联","id":"63b33ec3-7b51-4d28-bc4a-4e942cf941cc","lat":27.012226,"lng":106.048828,"name":"贵州省黔西县妇联"},{"address":"贵州省黔西县五里布依族苗族乡计划生育协会","id":"28ac5bcb-b567-4549-8aa0-ab1f1b5ce72d","lat":26.892029,"lng":105.916427,"name":"贵州省黔西县五里布依族苗族乡计划生育协会"},{"address":"贵州省金沙县工业经济和能源局（商务局）党组","id":"d3f1f077-8267-479b-ab57-a928483252f2","lat":27.465647,"lng":106.226622,"name":"贵州省金沙县工业经济和能源局（商务局）党组"},{"address":"贵州省织金县以那镇人民政府","id":"0b4621ec-6554-4396-8bab-379863639366","lat":26.82105,"lng":105.703765,"name":"贵州省织金县以那镇人民政府"},{"address":"贵州省纳雍县发展和改革局党组","id":"ad6ee150-7d7a-4c4f-bb02-7b7282e0c422","lat":26.78314,"lng":105.389978,"name":"贵州省纳雍县发展和改革局党组"},{"address":"贵州省金沙县新化苗族彝族满族乡人大主席团","id":"a2070dd4-711d-4903-b66b-514a7dd73620","lat":27.873272599438792,"lng":111.24684472008677,"name":"贵州省金沙县新化苗族彝族满族乡人大主席团"},{"address":"贵州百里杜鹃管理区管委会","id":"7723f076-3916-4934-86a1-3242fad28406","lat":27.228697,"lng":105.846785,"name":"贵州百里杜鹃管理区管委会"},{"address":"贵州省大方县卫生和计划生育局","id":"3657a5a1-b331-4500-931a-3355bd30046e","lat":27.145662,"lng":105.612235,"name":"贵州省大方县卫生和计划生育局"},{"address":"贵州省金沙县岚头镇人民政府","id":"01f3a4f2-a5b1-47eb-b305-b84fd6ae1113","lat":27.411452,"lng":106.513191,"name":"贵州省金沙县岚头镇人民政府"},{"address":"贵州省毕节市七星关区房产局","id":"7fd25b44-0331-4245-b199-ff7ccd2b480c","lat":27.304165,"lng":105.31162,"name":"贵州省毕节市七星关区房产局"},{"address":"贵州省毕节市七星关区杨家湾镇","id":"36978c3a-271e-4123-bee1-7bbe481294c8","lat":27.180026,"lng":104.979822,"name":"贵州省毕节市七星关区杨家湾镇"},{"address":"贵州省纳雍县沙包乡党委","id":"1c6c306c-2503-4cdf-bd29-9a8b69af644c","lat":26.842246,"lng":105.368659,"name":"贵州省纳雍县沙包乡党委"},{"address":"贵州省金沙县马路彝族苗族乡人大主席团","id":"fc5cb9a6-cca5-495b-8817-94952035b683","lat":27.705454,"lng":105.961792,"name":"贵州省金沙县马路彝族苗族乡人大主席团"},{"address":"纳雍县人民政府居仁街道办事处党工委","id":"c6571cb8-835f-4454-a92d-a650a8e7b718","lat":26.795102083008498,"lng":105.26868668571373,"name":"纳雍县人民政府居仁街道办事处党工委"},{"address":"贵州省赫章县可乐乡","id":"aa902bb9-af0a-49aa-a3f4-b1aca3f30a45","lat":27.242504,"lng":104.407896,"name":"贵州省赫章县可乐乡"},{"address":"贵州省金沙县长坝镇人大主席团","id":"90bbb7a8-af58-4b93-be9f-4bfbda0f0d8a","lat":27.705454,"lng":105.961792,"name":"贵州省金沙县长坝镇人大主席团"},{"address":"贵州省威宁自治县新发乡人民政府","id":"d713d086-3a04-4c70-8c98-4730cb6b6f17","lat":26.572286736588655,"lng":104.64926312005684,"name":"贵州省威宁自治县新发乡人民政府"},{"address":"九三学社毕节市委员会","id":"10aa16c8-5ccd-4b53-b275-9c0fc635e526","lat":27.288304,"lng":105.298841,"name":"九三学社毕节市委员会"},{"address":"贵州省纳雍县羊场苗族彝族乡纪委","id":"c03fe601-2af3-40a6-9820-b57ac244ad28","lat":27.048454222281297,"lng":105.06971555284645,"name":"贵州省纳雍县羊场苗族彝族乡纪委"},{"address":"贵州省威宁自治县交通运输局","id":"8fd08f8e-1677-416c-b1b6-e5737d421964","lat":26.869056,"lng":104.293939,"name":"贵州省威宁自治县交通运输局"},{"address":"贵州省毕节市七星关区燕子口镇人民政府","id":"594ab40f-f663-47d2-a73a-e5d3ec0b00b3","lat":27.604453,"lng":105.439564,"name":"贵州省毕节市七星关区燕子口镇人民政府"},{"address":"贵州省赫章县雉街彝族苗族乡","id":"06da7fe5-9664-498b-a8c8-4855730c629e","lat":26.879204,"lng":104.770925,"name":"贵州省赫章县雉街彝族苗族乡"},{"address":"贵州省毕节市七星关区海子街镇党委、政府","id":"aa53dbb4-9c6d-49f4-863a-0f0bd8ae38ec","lat":27.464053316004616,"lng":105.42355760083845,"name":"贵州省毕节市七星关区海子街镇党委、政府"},{"address":"贵州省毕节市七星关区大河乡人民政府","id":"025a282f-1aaa-44a8-b8a6-3fccd5cd1d58","lat":27.287583436660398,"lng":104.92148683532137,"name":"贵州省毕节市七星关区大河乡人民政府"},{"address":"贵州省毕节市八寨镇政府","id":"b2d67326-a81c-4b2e-a304-9085e6bcb742","lat":27.418584,"lng":105.38157,"name":"贵州省毕节市八寨镇政府"},{"address":"贵州省毕节市监察局第六监察分局","id":"836a770a-2786-4a94-9739-3fb56045778f","lat":0.0,"lng":0.0,"name":"贵州省毕节市监察局第六监察分局"},{"address":"贵州省金沙县沙土镇人大主席团","id":"b674b961-2776-480a-8255-266dd2f5fd43","lat":27.705454,"lng":105.961792,"name":"贵州省金沙县沙土镇人大主席团"},{"address":"贵州省金沙县清池镇","id":"30b3ae08-a739-45d0-951a-58a1ba4cf0f0","lat":27.70553,"lng":105.962061,"name":"贵州省金沙县清池镇"},{"address":"贵州省威宁县云贵乡","id":"a2eeda23-5b2c-49a8-b298-69e65a175047","lat":27.305814,"lng":104.10259,"name":"贵州省威宁县云贵乡"},{"address":"贵州省毕节市七星关区亮岩镇","id":"6be38052-1fa0-4db7-b432-7c210dcebd1f","lat":27.638376,"lng":105.489898,"name":"贵州省毕节市七星关区亮岩镇"},{"address":"贵州省金沙县住建局","id":"170c76a2-70cc-41a1-927e-09710990719a","lat":27.289508,"lng":105.298389,"name":"贵州省金沙县住建局"},{"address":"贵州省织金县猫场镇人民政府","id":"e817d13e-46f2-48eb-9c56-016c6c7bcdfb","lat":26.545973,"lng":106.045062,"name":"贵州省织金县猫场镇人民政府"},{"address":"贵州省毕节市织金县绮陌街道","id":"e5ebf766-7baa-459b-9f9e-a7d3a6f1ea4c","lat":26.730915,"lng":105.807909,"name":"贵州省毕节市织金县绮陌街道"},{"address":"贵州百里杜鹃管理区普度彝族苗族白族乡","id":"4e8af209-8667-4cd2-8621-fd54a8c24847","lat":27.156739366547487,"lng":99.16801220516582,"name":"贵州百里杜鹃管理区普度彝族苗族白族乡"},{"address":"贵州省毕节市团委","id":"6a6982d4-f338-4d30-9684-08bc934dcf6a","lat":26.871835,"lng":104.2945,"name":"贵州省毕节市团委"},{"address":"贵州省毕节市七星关区委","id":"ca10c456-f465-4de8-aa3d-c1608728c52c","lat":27.304112,"lng":105.311752,"name":"贵州省毕节市七星关区委"},{"address":"贵州省金沙县红十字会","id":"3d20b59c-6ed0-449c-8ae8-d3d6ae3d8508","lat":27.46692,"lng":106.230649,"name":"贵州省金沙县红十字会"},{"address":"共青团毕节市委","id":"ba776f79-95cc-4157-9207-e9b7935d3708","lat":37.531810851632606,"lng":121.38785360655619,"name":"共青团毕节市委"},{"address":"贵州省纳雍县水东乡","id":"d4896247-b0d0-449d-b132-2c5f3124a35d","lat":26.718381,"lng":105.567425,"name":"贵州省纳雍县水东乡"},{"address":"贵州省威宁自治县中水镇","id":"2fde3ffc-175b-43d4-80e9-724c60ccdf48","lat":27.225259,"lng":103.811716,"name":"贵州省威宁自治县中水镇"},{"address":"贵州省织金县大平苗族彝族乡","id":"7ae28126-3cfc-4d0e-a75b-cf6a6f97cc9e","lat":26.786292,"lng":106.040102,"name":"贵州省织金县大平苗族彝族乡"},{"address":"贵州省织金县纳雍乡","id":"70f73f2a-6a23-45fc-b01b-c2fbbcaae638","lat":26.766588,"lng":105.982778,"name":"贵州省织金县纳雍乡"},{"address":"贵州省织金县以那镇","id":"ff409ced-9f0d-427e-a7bf-d2422389d319","lat":26.82105,"lng":105.703765,"name":"贵州省织金县以那镇"},{"address":"贵州省黔西县洪水镇","id":"753173f8-ae43-4728-b8be-9424586667cb","lat":27.102713,"lng":105.953418,"name":"贵州省黔西县洪水镇"},{"address":"贵州省纳雍县人民政府居仁街道办事处","id":"3a329b23-cfbe-4703-bf1f-14d95c925925","lat":26.784026,"lng":105.414339,"name":"贵州省纳雍县人民政府居仁街道办事处"},{"address":"贵州省纳雍县寨乐镇党委","id":"7ae0eb5d-3db0-4a38-8ef1-f5168989978a","lat":26.881799,"lng":105.321005,"name":"贵州省纳雍县寨乐镇党委"},{"address":"贵州省纳雍县水东镇人民政府","id":"6496d855-f05b-4540-8463-72728666fc63","lat":26.718382,"lng":105.567425,"name":"贵州省纳雍县水东镇人民政府"},{"address":"贵州省毕节市七星关区普宜镇","id":"3e94f6ce-e22a-4eed-b970-4cadae77f4bb","lat":27.61024,"lng":105.677136,"name":"贵州省毕节市七星关区普宜镇"},{"address":"贵州省大方县大山乡","id":"eaee3f27-c57c-4f8e-be75-28b4e6d266b9","lat":27.480391,"lng":105.849922,"name":"贵州省大方县大山乡"},{"address":"贵州省黔西县纪委","id":"d7072369-fe8a-4404-8673-e6456822bf51","lat":27.146388,"lng":105.617589,"name":"贵州省黔西县纪委"},{"address":"贵州省毕节市七星关区碧阳街道办事处","id":"337786d8-eb14-4f0c-a86d-24bcdf2ab9ca","lat":27.291635,"lng":105.326854,"name":"贵州省毕节市七星关区碧阳街道办事处"},{"address":"贵州省毕节市七星关区撒拉溪镇","id":"e9c0b264-0588-43a7-a30d-cd84548a580d","lat":27.202457,"lng":105.048082,"name":"贵州省毕节市七星关区撒拉溪镇"},{"address":"贵州省黔西县县人大常委会","id":"4854437a-a11c-4c9d-9a05-0957ca4b37a9","lat":27.013453,"lng":106.040092,"name":"贵州省黔西县县人大常委会"},{"address":"贵州省威宁自治县石门乡","id":"103b0b98-2a8a-4709-93f0-6ef30c8eb8df","lat":27.36628,"lng":103.958941,"name":"贵州省威宁自治县石门乡"},{"address":"贵州省纳雍县居仁街道党工委","id":"2f66d92c-faf9-41f6-a47f-4e53ff2c860a","lat":26.776902,"lng":105.441498,"name":"贵州省纳雍县居仁街道党工委"},{"address":"贵州省赫章县人民检察院","id":"d3b6e9a5-0386-4511-a394-dd15d895c60b","lat":27.132195,"lng":104.742579,"name":"贵州省赫章县人民检察院"},{"address":"贵州省黔西县观音洞镇","id":"d23546ee-e893-4aae-83b9-6c81c704cc7b","lat":26.850092,"lng":105.964931,"name":"贵州省黔西县观音洞镇"},{"address":"贵州省毕节市织金县人民政府","id":"a46cc5e5-cbd0-4b3f-a8b3-36bbec62a685","lat":26.669298,"lng":105.77705,"name":"贵州省毕节市织金县人民政府"},{"address":"贵州省织金县阿弓镇","id":"c4153bb2-00fe-4ac9-a493-3dd10cdc3826","lat":26.485636,"lng":105.523271,"name":"贵州省织金县阿弓镇"},{"address":"贵州省大方县瓢井镇","id":"0a775268-6af9-44ba-a9a0-400cac30ce61","lat":27.453329,"lng":105.701398,"name":"贵州省大方县瓢井镇"},{"address":"贵州省毕节市七星关区碧海新区管理委员会","id":"d3e375ba-7d9d-4d45-b93f-3eef0e30b3a1","lat":27.334692,"lng":105.331064,"name":"贵州省毕节市七星关区碧海新区管理委员会"},{"address":"贵州省黔西县莲城街道党工委","id":"0e396096-c66e-4256-abf6-a6944f57a95b","lat":27.011331,"lng":106.049655,"name":"贵州省黔西县莲城街道党工委"},{"address":"贵州省黔西县定新彝族苗族乡","id":"5074555f-25ef-40b0-9543-c8d8ad6b214e","lat":27.17612,"lng":106.143018,"name":"贵州省黔西县定新彝族苗族乡"},{"address":"贵州省金沙县大田彝族苗族布依族乡党委","id":"3ba90ee6-9578-4449-93da-35b2996cb2b3","lat":27.401739104738116,"lng":106.05558253689698,"name":"贵州省金沙县大田彝族苗族布依族乡党委"},{"address":"贵州省金沙县平坝镇党委","id":"7872e5e5-0aa2-4fca-bfa1-94ff4fb40f61","lat":27.510747061835552,"lng":106.16219511282065,"name":"贵州省金沙县平坝镇党委"},{"address":"贵州省威宁自治县牛棚镇","id":"8d80574d-4da3-45df-b742-054448b54745","lat":27.094752,"lng":103.827696,"name":"贵州省威宁自治县牛棚镇"},{"address":"贵州省威宁县大街乡","id":"7dee9d52-3f41-4362-bd91-e18d43a71082","lat":27.129047,"lng":104.250031,"name":"贵州省威宁县大街乡"},{"address":"贵州省赫章县工商业联合会（商会）","id":"eb2254a0-da06-4a4d-8421-48e3d03daa92","lat":27.01195,"lng":106.043808,"name":"贵州省赫章县工商业联合会（商会）"},{"address":"贵州省赫章县城关镇","id":"85fd6e16-ad53-4722-a862-5217568d5d52","lat":27.124517,"lng":104.731254,"name":"贵州省赫章县城关镇"},{"address":"贵州省威宁自治县金钟镇","id":"c0e97874-8c6f-4656-b10a-0e6c5564123f","lat":26.767789,"lng":104.435199,"name":"贵州省威宁自治县金钟镇"},{"address":"贵州省织金县大平乡","id":"117e4ef8-1b9d-4ffd-8b8e-2b383f038c4f","lat":26.770898,"lng":106.063566,"name":"贵州省织金县大平乡"},{"address":"贵州百里杜鹃管理区（贵州百里杜鹃国家森林公园、贵州百里杜鹃自然保护区）","id":"4ae226e1-cb0f-4aac-af9c-c2c6d06d661b","lat":25.698024856615813,"lng":100.16742694064195,"name":"贵州百里杜鹃管理区（贵州百里杜鹃国家森林公园、贵州百里杜鹃自然保护区）"},{"address":"贵州省织金县自强苗族乡","id":"3bbc4de9-f7eb-4f2a-ac89-fbdec18917ef","lat":26.691797,"lng":106.115067,"name":"贵州省织金县自强苗族乡"},{"address":"贵州省纳雍县人民政府党组","id":"ff6bd348-21e0-4593-9d2f-dab97c3f63c6","lat":26.784054,"lng":105.38944,"name":"贵州省纳雍县人民政府党组"},{"address":"贵州省毕节市七星关区阿市乡","id":"549a4cd2-332e-48e7-bf3e-9e92850b7e26","lat":27.580401,"lng":105.61721,"name":"贵州省毕节市七星关区阿市乡"},{"address":"贵州省纳雍县阳长镇党委","id":"af70e74e-acfd-4adc-b2ad-247085250d6c","lat":26.629157807198307,"lng":105.19269699068275,"name":"贵州省纳雍县阳长镇党委"},{"address":"大方县人口和计划生育协会","id":"410276f5-0db0-4796-bc93-a6b1e6d0a0c9","lat":27.145737,"lng":105.612139,"name":"大方县人口和计划生育协会"},{"address":"贵州省威宁自治县大街乡","id":"c8d8fa65-5420-4dd5-baa4-06bf09cf7635","lat":27.129047,"lng":104.250031,"name":"贵州省威宁自治县大街乡"},{"address":"贵州省金沙县化觉镇党委","id":"6d745097-dc60-4e3f-a8e4-cb25152f3f44","lat":27.198848,"lng":106.424405,"name":"贵州省金沙县化觉镇党委"},{"address":"贵州省金沙县后山镇委员会","id":"c5d32b57-60dd-4c9f-83c3-bdbd9d5ffe57","lat":27.471542677861745,"lng":106.2268521592366,"name":"贵州省金沙县后山镇委员会"},{"address":"贵州省毕节市七星关区大新桥街道","id":"84c8c018-33b5-4963-8bb6-444ba97e0c7e","lat":27.328366,"lng":105.28323,"name":"贵州省毕节市七星关区大新桥街道"},{"address":"贵州省毕节市七星关区委组织部","id":"336644f3-d42b-4d2f-91f2-8bcf3f913509","lat":27.304112,"lng":105.311752,"name":"贵州省毕节市七星关区委组织部"},{"address":"贵州省纳雍县水东镇","id":"18da0dff-caa0-4608-8314-239a7fecee44","lat":26.761595,"lng":105.501616,"name":"贵州省纳雍县水东镇"},{"address":"贵州省毕节市七星关区何官屯镇人民政府","id":"49e84f3d-6580-4ec6-a03b-3062548d9111","lat":27.304165,"lng":105.31162,"name":"贵州省毕节市七星关区何官屯镇人民政府"},{"address":"贵州省金沙县石场苗族彝族乡党委","id":"3fd36a40-bf08-4067-8a52-cf12b156e529","lat":27.60114102287268,"lng":106.0181703195554,"name":"贵州省金沙县石场苗族彝族乡党委"},{"address":"贵州省织金县板桥镇","id":"e9040bf0-340b-4128-aae5-26e71dbbead4","lat":26.762751,"lng":105.740665,"name":"贵州省织金县板桥镇"},{"address":"贵州省金沙县化觉镇","id":"6cca034d-e694-4867-8f36-0874efe292ab","lat":27.198848,"lng":106.424405,"name":"贵州省金沙县化觉镇"},{"address":"贵州省黔西县金兰镇武装部","id":"7c7f2150-02f1-4724-b554-c93a32a953a8","lat":26.84413358649877,"lng":106.0229431236267,"name":"贵州省黔西县金兰镇武装部"},{"address":"贵州省威宁自治县六桥街道","id":"2be97887-d70f-441d-ac15-6fb141ddc13f","lat":26.865466,"lng":104.294645,"name":"贵州省威宁自治县六桥街道"},{"address":"贵州省黔西县莲城街道纪工委","id":"e71a1a0a-4f99-48b6-b366-3de981c19258","lat":27.01222662166604,"lng":106.04882815171884,"name":"贵州省黔西县莲城街道纪工委"},{"address":"贵州省金沙县清池镇党委","id":"7be3b956-deeb-43b3-8916-0bbdb5f50522","lat":27.70528092647289,"lng":105.96199882239075,"name":"贵州省金沙县清池镇党委"},{"address":"贵州省贵州省金沙县文化体育广播电视旅游局（新闻出版局、版权局）党组","id":"2029d761-7849-4559-bca2-418980be6f0d","lat":27.471542677861745,"lng":106.2268521592366,"name":"贵州省贵州省金沙县文化体育广播电视旅游局（新闻出版局、版权局）党组"},{"address":"贵州省金沙县禹谟镇党委","id":"139c3b12-e903-4098-a775-8a8d9e94cf7d","lat":27.379880533365018,"lng":106.34043160103214,"name":"贵州省金沙县禹谟镇党委"},{"address":"贵州省威宁自治县哈喇河镇","id":"0c4ae49f-8a59-44fb-bf3a-2bddf4abea47","lat":26.823862,"lng":103.989969,"name":"贵州省威宁自治县哈喇河镇"},{"address":"中国国民党革命委员会贵州省毕节市工作委员会","id":"d4679f2f-38bb-40d4-bb77-f455752ca619","lat":26.783497,"lng":105.39019,"name":"中国国民党革命委员会贵州省毕节市工作委员会"},{"address":"贵州省威宁自治县哈喇河镇党委","id":"a50dda19-0e5b-4a7b-a8b4-bb65d6fea079","lat":26.829138,"lng":104.003278,"name":"贵州省威宁自治县哈喇河镇党委"},{"address":"共青团大方县委","id":"1c7182b2-0963-4baa-bd97-bdf214c76b2a","lat":27.253059626031487,"lng":105.73720221998492,"name":"共青团大方县委"},{"address":"贵州省赫章县六曲河镇","id":"bcb30a15-ad14-4055-9cd4-5fd2172a9f05","lat":27.234726,"lng":104.712289,"name":"贵州省赫章县六曲河镇"},{"address":"贵州省毕节市卫计委","id":"0971986c-8a35-43ec-bb7f-c8cb28daa693","lat":30.66225233382248,"lng":113.1694399072954,"name":"贵州省毕节市卫计委"},{"address":"贵州省纳雍县文体广电旅游局","id":"bace7105-6c8d-4f19-b3bf-dd4242a1a151","lat":26.783399,"lng":105.388713,"name":"贵州省纳雍县文体广电旅游局"},{"address":"贵州省大方县八堡乡","id":"fb20a197-e1d2-4259-97a0-c9f788660a9a","lat":27.421278,"lng":105.589073,"name":"贵州省大方县八堡乡"},{"address":"贵州省纳雍县左鸠戛彝族苗族乡党委","id":"5f0f0840-4b09-4331-811c-8832c001d3e9","lat":26.8329216777458,"lng":105.0612121928918,"name":"贵州省纳雍县左鸠戛彝族苗族乡党委"},{"address":"政协毕节市委员会贵州百里杜鹃管理区工作委员会","id":"3021876f-8bc2-4d57-ab8f-2825d56729ea","lat":27.228697,"lng":105.846785,"name":"政协毕节市委员会贵州百里杜鹃管理区工作委员会"},{"address":"贵州省威宁自治县城市管理局","id":"e5b2950f-1962-4d1a-8b20-f3b02e85ce1b","lat":26.873048,"lng":104.286627,"name":"贵州省威宁自治县城市管理局"},{"address":"贵州省毕节市七星关区城市综合执法大队党组","id":"1165953a-bfc8-4dad-abe6-9c4a9c8381f9","lat":27.464053316004616,"lng":105.42355760083845,"name":"贵州省毕节市七星关区城市综合执法大队党组"},{"address":"贵州省威宁自治县纪律检查委员会第五纪律检查工作委员会","id":"e1dc538a-0639-40c6-a634-0f7cb8be2bfa","lat":26.912946643101318,"lng":104.13788406340932,"name":"贵州省威宁自治县纪律检查委员会第五纪律检查工作委员会"},{"address":"贵州省大方县统计局","id":"28e6dc16-0ed4-408a-a246-8972578f913e","lat":27.14681,"lng":105.617419,"name":"贵州省大方县统计局"},{"address":"贵州省织金县三塘镇党委","id":"714c9cf4-b8bf-45cc-9619-26d0b9ca9af6","lat":26.718382,"lng":105.567425,"name":"贵州省织金县三塘镇党委"},{"address":"贵州百里杜鹃管理区普底彝族苗族白族乡","id":"7111c756-9cc5-43f4-b199-9cac2d51393e","lat":27.228697,"lng":105.846785,"name":"贵州百里杜鹃管理区普底彝族苗族白族乡"},{"address":"贵州省毕节金海湖新区（贵州毕节经济开发区）教科文卫局","id":"7023a8e1-7205-499f-95ec-34bcf2cc90e4","lat":27.234485,"lng":105.437852,"name":"贵州省毕节金海湖新区（贵州毕节经济开发区）教科文卫局"},{"address":"贵州省纳雍县羊场苗族彝族乡党委","id":"981965ba-133b-4077-8758-98b80d5ea9eb","lat":27.048454222281297,"lng":105.06971555284645,"name":"贵州省纳雍县羊场苗族彝族乡党委"},{"address":"贵州省毕节市织金产业园区","id":"c6d27c4c-1542-4ec1-bf24-d76847e75999","lat":26.705005,"lng":105.84502,"name":"贵州省毕节市织金产业园区"},{"address":"贵州省金沙县新化苗族彝族满族乡人民政府","id":"59927721-4f26-424a-89fe-07f9dbba0b1d","lat":27.40438,"lng":106.12176,"name":"贵州省金沙县新化苗族彝族满族乡人民政府"},{"address":"贵州省大方县委","id":"c9fc3c64-02b7-47f3-bfb4-5e9c930e1b14","lat":27.146652,"lng":105.61819,"name":"贵州省大方县委"},{"address":"贵州省毕节金海湖新区（贵州毕节经济开发区）岔河镇党委","id":"071be3ac-2996-44c5-a5ef-4cf19d3d3a4a","lat":27.234485,"lng":105.437852,"name":"贵州省毕节金海湖新区（贵州毕节经济开发区）岔河镇党委"},{"address":"贵州毕节金海湖新区（贵州毕节经济开发区）竹园乡人民政府","id":"3f9ce100-6c04-450a-b246-a029bc655094","lat":27.234485,"lng":105.437852,"name":"贵州毕节金海湖新区（贵州毕节经济开发区）竹园乡人民政府"},{"address":"贵州省纳雍县水东镇党委","id":"a824b743-b27a-424a-8467-8b155c89ee21","lat":26.718382,"lng":105.567425,"name":"贵州省纳雍县水东镇党委"},{"address":"贵州省纳雍县猪场苗族彝族乡党委","id":"23a01a3b-ddbb-47bd-ac9e-200d4934dec6","lat":26.80888881069503,"lng":105.13136758138326,"name":"贵州省纳雍县猪场苗族彝族乡党委"},{"address":"贵州省毕节金海湖新区（贵州毕节经济开发区）响水党委","id":"3ff93619-b765-40b1-9006-dbada7a76f61","lat":27.234485,"lng":105.437852,"name":"贵州省毕节金海湖新区（贵州毕节经济开发区）响水党委"},{"address":"贵州省毕节金海湖新区竹园彝族苗族乡党委","id":"879257b5-4100-41ce-80e5-d9be97b02563","lat":27.25455947121285,"lng":105.55788645453407,"name":"贵州省毕节金海湖新区竹园彝族苗族乡党委"},{"address":"贵州省纳雍县阳长镇","id":"5daf6885-3fff-46d1-9619-d0fb10a0c783","lat":26.629153,"lng":105.19269,"name":"贵州省纳雍县阳长镇"},{"address":"贵州省金沙县卫生和计划生育局","id":"6ad40349-8841-413b-9228-df38b698c1ee","lat":27.468235,"lng":106.232544,"name":"贵州省金沙县卫生和计划生育局"},{"address":"贵州省纳雍县委统战部","id":"d5e5173a-fe17-4ba7-9d92-b54969ea951d","lat":26.783744582672085,"lng":105.38900478784949,"name":"贵州省纳雍县委统战部"},{"address":"贵州省毕节市科学技术协会","id":"ac6605d7-028f-4dab-b803-55e342872342","lat":27.3029,"lng":105.29267,"name":"贵州省毕节市科学技术协会"},{"address":"贵州省威宁自治县扶贫开发办公室","id":"00ccf415-9e5e-42fc-8c9f-707c61d11305","lat":27.308373,"lng":105.290532,"name":"贵州省威宁自治县扶贫开发办公室"},{"address":"贵州省金沙县石场乡计生协会","id":"5efea90d-fd78-451c-b203-b92bafaadfc0","lat":27.600474968236632,"lng":106.01634891081245,"name":"贵州省金沙县石场乡计生协会"},{"address":"贵州省赫章县河镇彝族苗族乡人民政府","id":"1498b362-f8ea-485f-b2c9-aa757a2845ad","lat":27.33583,"lng":104.34609,"name":"贵州省赫章县河镇彝族苗族乡人民政府"},{"address":"贵州省金沙县五龙街道办事处","id":"162d9859-72a7-4e75-b41b-6504d83bb4e3","lat":27.480269,"lng":106.346082,"name":"贵州省金沙县五龙街道办事处"},{"address":"贵州省毕节市七星关区住房和城乡建设局","id":"2dafb955-1081-42a5-9713-3aff9b8c11ad","lat":27.312654,"lng":105.293662,"name":"贵州省毕节市七星关区住房和城乡建设局"},{"address":"贵州省金沙县工商业联合会（商会）","id":"b3557eba-9e86-4f02-96ee-4eac60cafbb3","lat":27.01195,"lng":106.043808,"name":"贵州省金沙县工商业联合会（商会）"},{"address":"贵州省金沙县鼓场街道纪工委","id":"05758ad6-a816-4f69-ad38-b069ff5fa65f","lat":27.471542677861745,"lng":106.2268521592366,"name":"贵州省金沙县鼓场街道纪工委"},{"address":"贵州省大方县委宣传部","id":"5feb3b89-1f4d-40e9-a1ee-dc1b93023296","lat":27.146388,"lng":105.617589,"name":"贵州省大方县委宣传部"},{"address":"贵州省黔西县金碧镇","id":"acf8d88c-64be-47e0-92c3-27e9619c47b4","lat":26.937875,"lng":105.969869,"name":"贵州省黔西县金碧镇"},{"address":"贵州省赫章县委员会","id":"7538c14e-17ad-46ca-a445-a42cf7bb5568","lat":27.125655,"lng":104.728607,"name":"贵州省赫章县委员会"},{"address":"贵州省毕节市七星关区田坎彝族乡","id":"7c0af5a6-1ae6-4b1f-8e6f-ecbc3740b511","lat":27.703748,"lng":105.856917,"name":"贵州省毕节市七星关区田坎彝族乡"},{"address":"贵州省赫章县珠市彝族乡党委","id":"5a1a2d09-7b06-427b-b986-aa0250b2d8d7","lat":26.920207,"lng":104.675768,"name":"贵州省赫章县珠市彝族乡党委"},{"address":"贵州省毕节市七星关区保密局","id":"4951daba-e37a-4a42-8e1c-9f5d0e49ddb9","lat":27.464053316004616,"lng":105.42355760083845,"name":"贵州省毕节市七星关区保密局"},{"address":"贵州省织金县龙场镇","id":"e3386f58-521e-41ae-99c1-b0f7cede929e","lat":26.754645,"lng":106.085068,"name":"贵州省织金县龙场镇"},{"address":"大方县马场镇人民政府","id":"b90dfaff-bbd1-4b1c-9e14-6daa6af578f3","lat":26.951997,"lng":105.495934,"name":"大方县马场镇人民政府"},{"address":"贵州省毕节市七星关区小康办","id":"1962a92c-3d5b-4884-9b66-caa3388bcbc4","lat":27.464053316004616,"lng":105.42355760083845,"name":"贵州省毕节市七星关区小康办"},{"address":"贵州省大方县人政府政务服务中心","id":"5ca89a5d-87f4-4260-a0a2-1ed72cdf4014","lat":27.15137,"lng":105.608608,"name":"贵州省大方县人政府政务服务中心"},{"address":"贵州省大方县人力资源和社会保障局","id":"55ac5a95-d0c1-4a39-9629-26d0c7f45e24","lat":27.151113,"lng":105.607781,"name":"贵州省大方县人力资源和社会保障局"},{"address":"贵州省大方县凤山乡","id":"6bd7d729-31be-4692-acd3-ea1d87b22db3","lat":27.222733,"lng":105.743908,"name":"贵州省大方县凤山乡"},{"address":"贵州省纳雍县董地乡人民政府","id":"82c5fef2-c65f-4b92-bb56-49f0b1a77f61","lat":26.950643,"lng":105.248285,"name":"贵州省纳雍县董地乡人民政府"},{"address":"贵州省金海湖新区竹园乡","id":"bba383a9-c9b6-4335-be64-02c620241fd0","lat":27.234485,"lng":105.437852,"name":"贵州省金海湖新区竹园乡"},{"address":"贵州省黔西县供销合作社联合社党组","id":"63004a40-4d64-4949-893b-6d19ad7f2e93","lat":27.086384569459483,"lng":106.1405027568135,"name":"贵州省黔西县供销合作社联合社党组"},{"address":"贵州省纳雍县阳长镇人民政府","id":"6ac84ae2-0430-4580-8e65-70527ecb234a","lat":26.634026,"lng":105.19574,"name":"贵州省纳雍县阳长镇人民政府"},{"address":"贵州毕节金海湖新区（贵州毕节经济开发区）文阁乡","id":"b2e06b25-bbf9-4e84-b384-8577b2ca26b7","lat":27.234485,"lng":105.437852,"name":"贵州毕节金海湖新区（贵州毕节经济开发区）文阁乡"},{"address":"贵州省黔西县红林乡","id":"977b34f6-4399-4f52-9b74-0c17b22a9fcf","lat":26.836716,"lng":105.921008,"name":"贵州省黔西县红林乡"},{"address":"贵州省大方县鼎新彝族苗族乡","id":"69c97683-fdb0-40a5-b7ac-b959704c904d","lat":27.009135,"lng":105.392567,"name":"贵州省大方县鼎新彝族苗族乡"},{"address":"贵州省黔西县铁石乡","id":"bc8e5a58-c741-465f-9285-e1d903530740","lat":26.930166,"lng":106.290689,"name":"贵州省黔西县铁石乡"},{"address":"贵州省毕节市金海湖新区竹园乡党委","id":"a00a803e-1294-43d8-9dac-fda01bbb451a","lat":40.038681701253104,"lng":116.43954432984577,"name":"贵州省毕节市金海湖新区竹园乡党委"},{"address":"贵州省毕节市七星关区交通局","id":"003e04d3-97e0-4a12-94d2-3e1cf1a506ed","lat":27.307785,"lng":105.290648,"name":"贵州省毕节市七星关区交通局"},{"address":"贵州省织金县官寨苗族乡","id":"345b8fda-1e8c-4aff-b109-fb4dbdd01fef","lat":26.775447,"lng":105.890935,"name":"贵州省织金县官寨苗族乡"},{"address":"贵州省毕节市大方县果瓦乡","id":"949b6db0-6bd3-411d-9d89-0a1b7d2a117d","lat":27.559669,"lng":105.830371,"name":"贵州省毕节市大方县果瓦乡"},{"address":"贵州省黔西县杜鹃街道","id":"f86fa2a1-cd4e-4ded-9446-c80a07a1a2e8","lat":27.032327,"lng":106.034092,"name":"贵州省黔西县杜鹃街道"},{"address":"贵州省毕节市七星关区大河乡政府","id":"e8223070-1990-4cd4-87ce-98a8153720b3","lat":27.248739,"lng":104.953378,"name":"贵州省毕节市七星关区大河乡政府"},{"address":"贵州省威宁自治县东风镇人民政府","id":"971f6acc-ef09-42d3-a090-2192efdf0f55","lat":26.801878,"lng":104.59599,"name":"贵州省威宁自治县东风镇人民政府"},{"address":"贵州省毕节市七星关区团结彝族苗族乡","id":"973a76f7-af16-470e-b10f-d3cd85899b71","lat":27.716974,"lng":105.383539,"name":"贵州省毕节市七星关区团结彝族苗族乡"},{"address":"贵州省毕节市七星关区海子街镇人民政府","id":"b9381d1d-eb28-43eb-a2f1-715fce8d166e","lat":27.372721,"lng":105.394308,"name":"贵州省毕节市七星关区海子街镇人民政府"},{"address":"贵州省赫章县财政局双坪分局","id":"e3e4c887-1015-42d0-84eb-d230a22d3cba","lat":27.123812,"lng":104.734237,"name":"贵州省赫章县财政局双坪分局"},{"address":"贵州省黔西县重新镇第七届党委","id":"3e0c6c4e-9694-41ee-83a4-904d5ec8f9c5","lat":27.270673244236434,"lng":106.20689676047483,"name":"贵州省黔西县重新镇第七届党委"},{"address":"贵州省织金县金凤街道民生特派组","id":"67f2d090-7fc3-46b9-a053-d45d86524329","lat":26.647911,"lng":105.682005,"name":"贵州省织金县金凤街道民生特派组"},{"address":"贵州省毕节市青场镇","id":"e61b5846-4ce1-4497-97e0-bd2b4916bc50","lat":27.353012,"lng":105.030563,"name":"贵州省毕节市青场镇"},{"address":"贵州省威宁县板底乡","id":"159b289a-a209-49b6-b68d-2c090d0832c5","lat":26.922804,"lng":104.532121,"name":"贵州省威宁县板底乡"},{"address":"贵州省毕节市大方县安乐乡","id":"617372e6-9d6d-44c3-b719-c7dca6b750c3","lat":27.245783,"lng":105.665632,"name":"贵州省毕节市大方县安乐乡"},{"address":"贵州省金沙县沙土镇政府","id":"244b73d2-a572-4dd4-b8a3-ae06a6c7646b","lat":27.389122,"lng":106.602855,"name":"贵州省金沙县沙土镇政府"},{"address":"贵州省织金县少普乡","id":"a9a7b7d0-63a5-4a36-8aee-f93cb34b46f9","lat":26.529979,"lng":105.611026,"name":"贵州省织金县少普乡"},{"address":"贵州省大方县大山乡人民政府","id":"af71e15a-66c4-4494-aa8c-02c6e6235f42","lat":27.477993,"lng":105.84891,"name":"贵州省大方县大山乡人民政府"},{"address":"贵州省大方县人民武装部","id":"b003c3a1-90bd-4e80-8704-a9a77ee0a349","lat":27.140182,"lng":105.612886,"name":"贵州省大方县人民武装部"},{"address":"纳雍县人民政府居仁街道办事处","id":"8ba8208c-515e-4449-9688-ea8f66e533aa","lat":26.784026,"lng":105.414339,"name":"纳雍县人民政府居仁街道办事处"},{"address":"贵州省纳雍县直属机关工作委员会","id":"6f883f16-ce00-42db-a81a-f5e5bc450334","lat":26.782909,"lng":105.390845,"name":"贵州省纳雍县直属机关工作委员会"},{"address":"中共金沙县太平乡委员会","id":"fd6879af-e0f8-4118-8f7d-be821a7ebb32","lat":27.595671308939867,"lng":105.92274691399248,"name":"中共金沙县太平乡委员会"},{"address":"贵州省金沙县人大常委会西洛街道工作委员会","id":"c8c20ebb-20df-4e71-a1cd-7480d0c12125","lat":27.465365129684784,"lng":106.22667465945771,"name":"贵州省金沙县人大常委会西洛街道工作委员会"},{"address":"贵州省赫章县人民法院","id":"cf26f109-1738-449c-a32d-2c729e9e0b28","lat":27.13021,"lng":104.74299,"name":"贵州省赫章县人民法院"},{"address":"贵州省金沙县源村镇纪委","id":"fe06e441-e229-4b47-87c5-63bca5c570e3","lat":27.454961,"lng":106.673058,"name":"贵州省金沙县源村镇纪委"},{"address":"贵州省金沙县长坝乡委员会","id":"9189d90a-33e9-4edc-879c-ae769d661ec3","lat":27.316928,"lng":106.484462,"name":"贵州省金沙县长坝乡委员会"},{"address":"贵州省大方县凤山彝族蒙古族乡","id":"e948beee-df5c-4706-a2f0-b015ad3f2386","lat":27.221595,"lng":105.742459,"name":"贵州省大方县凤山彝族蒙古族乡"},{"address":"贵州省大方县教育党工委","id":"e3f87d9e-10f0-48e3-874b-2451f035f578","lat":27.253059626031487,"lng":105.73720221998492,"name":"贵州省大方县教育党工委"},{"address":"贵州省毕节市金沙县新化苗族彝族满族乡人大主席团","id":"8fdbc555-d4d2-4c6f-b802-4e3c5630cc84","lat":27.873272599438792,"lng":111.24684472008677,"name":"贵州省毕节市金沙县新化苗族彝族满族乡人大主席团"},{"address":"贵州省金沙县高坪乡人大主席团","id":"9ffd927b-34fc-429c-8282-6f51c273a7aa","lat":27.25110418976512,"lng":106.4118649369078,"name":"贵州省金沙县高坪乡人大主席团"},{"address":"贵州省威宁自治县监察局","id":"9697053c-a636-4c8b-8995-6f4ec5464e7e","lat":27.155739,"lng":105.609011,"name":"贵州省威宁自治县监察局"},{"address":"贵州省金沙县西洛街道党政法委","id":"3fd7b284-5d8e-416c-be7e-eafe88651bab","lat":27.430974,"lng":106.163865,"name":"贵州省金沙县西洛街道党政法委"},{"address":"贵州省金沙县人民检察院","id":"bbae917c-a55c-4344-a1db-e85b725783e4","lat":27.467206,"lng":106.233248,"name":"贵州省金沙县人民检察院"},{"address":"赫章县罗州乡","id":"bfa0444e-cc06-49a9-98b1-890cdeff239b","lat":27.125225,"lng":104.539165,"name":"赫章县罗州乡"},{"address":"官寨苗族乡人民政府","id":"162d8ef7-4a2d-4aab-96e4-7dc7494796f2","lat":26.77328,"lng":105.895194,"name":"官寨苗族乡人民政府"},{"address":"贵州省毕节市纪律检查委员会","id":"19d35fb8-050a-46ef-8569-2dc0de7aa0bf","lat":27.308365,"lng":105.290536,"name":"贵州省毕节市纪律检查委员会"},{"address":"黔西县五里布依族苗族乡","id":"48f3731f-a119-4472-bd06-313cf1b82043","lat":26.89122,"lng":105.937728,"name":"黔西县五里布依族苗族乡"},{"address":"贵州省七星关区小吉场镇人民政府","id":"8af1ea35-5a08-417a-b061-3dc726c2d6e3","lat":27.515923,"lng":105.524804,"name":"贵州省七星关区小吉场镇人民政府"},{"address":"贵州省毕节市威宁自治县板底乡","id":"5c4b5682-fd64-4873-8881-8323b9e615f6","lat":26.922804,"lng":104.532121,"name":"贵州省毕节市威宁自治县板底乡"},{"address":"贵州百里杜鹃戛木管理区","id":"47afdf2a-5ce2-481c-91e1-01e381e629d4","lat":27.138570470730134,"lng":105.01061213831183,"name":"贵州百里杜鹃戛木管理区"},{"address":"贵州省金沙县西洛街道人大工委","id":"bbd02db0-d44d-40d1-a889-f6df7ce38c66","lat":27.471542677861745,"lng":106.2268521592366,"name":"贵州省金沙县西洛街道人大工委"},{"address":"贵州省七星关区海子街镇人民政府","id":"f6fa305a-8d42-41ac-9300-cf678d578612","lat":27.372721,"lng":105.394308,"name":"贵州省七星关区海子街镇人民政府"},{"address":"贵州省毕节市大方县核桃乡武装部","id":"8438ba84-2b09-4099-bcd7-30c8163c7da4","lat":27.299942930274295,"lng":105.63220886130179,"name":"贵州省毕节市大方县核桃乡武装部"},{"address":"贵州省纳雍县人民法院党组","id":"56396d85-72df-4e2a-89c1-1ca7d28980f2","lat":26.779118,"lng":105.390425,"name":"贵州省纳雍县人民法院党组"},{"address":"贵州省大方县民盟支部","id":"ec0289db-6dd7-40ef-9195-293c5f367d2c","lat":27.253059626031487,"lng":105.73720221998492,"name":"贵州省大方县民盟支部"},{"address":"贵州省赫章县双乡统战部","id":"c6a82052-fedf-4ab9-acb7-b0b06a3eaa58","lat":27.15332246260986,"lng":104.59803187829694,"name":"贵州省赫章县双乡统战部"},{"address":"贵州省黔西县洪水镇党委","id":"567664b3-93c9-43b9-b1d4-fbaf0e1ce705","lat":27.086384569459483,"lng":106.1405027568135,"name":"贵州省黔西县洪水镇党委"},{"address":"贵州省毕节市七星关区三板桥街道办事处","id":"1f27e041-ec44-453d-83a7-c14e5cec8450","lat":27.295752,"lng":105.272941,"name":"贵州省毕节市七星关区三板桥街道办事处"},{"address":"贵州省金沙县人民政府","id":"cb022bb2-bd77-4608-a2dd-b1a417fff061","lat":27.464878,"lng":106.22661,"name":"贵州省金沙县人民政府"},{"address":"贵州省纳雍县政协","id":"30d0138e-a863-47da-adb5-e9160bac23a4","lat":26.783516,"lng":105.390219,"name":"贵州省纳雍县政协"},{"address":"贵州省威宁自治县哲觉镇","id":"dc39d6aa-129a-4fbe-8964-fd07e88129c2","lat":26.542863,"lng":103.921128,"name":"贵州省威宁自治县哲觉镇"},{"address":"贵州省纳雍县雍熙街道","id":"b52832dd-0e5c-4584-a306-4b7a6a44e6a2","lat":26.779399,"lng":105.38549,"name":"贵州省纳雍县雍熙街道"},{"address":"贵州省金沙县交通局党委","id":"3f83efa5-33ff-449e-9f5b-ceca0e4103cc","lat":27.461368089195798,"lng":106.23389029217608,"name":"贵州省金沙县交通局党委"},{"address":"贵州省黔西县水西街道","id":"4f9265b4-21eb-4758-aeb7-97baf138165a","lat":27.035213,"lng":106.041098,"name":"贵州省黔西县水西街道"},{"address":"贵州省黔西县锦星镇","id":"f1fd87ba-8b3e-480f-b6b0-51aa9329bc88","lat":27.007584,"lng":105.929429,"name":"贵州省黔西县锦星镇"},{"address":"贵州省毕节市七星关区人大常委会","id":"86818bc4-4940-4e1d-b58f-011bf0c143cb","lat":27.304165,"lng":105.31162,"name":"贵州省毕节市七星关区人大常委会"},{"address":"贵州省赫章县威奢乡","id":"46ee80c4-fb09-4cdd-9c74-ee373a2871d9","lat":27.086486,"lng":104.918321,"name":"贵州省赫章县威奢乡"},{"address":"贵州省毕节市织金县牛场镇","id":"63e2b885-6534-444a-94b7-a0084ee0bd41","lat":26.625768,"lng":106.018366,"name":"贵州省毕节市织金县牛场镇"},{"address":"贵州省金沙县马路彝族苗族乡党委","id":"bf60338a-730f-4d92-bebd-9ff2573268b5","lat":27.652562526626618,"lng":105.83368760591462,"name":"贵州省金沙县马路彝族苗族乡党委"},{"address":"贵州省金沙县沙土镇","id":"4586015b-5446-47c1-8fd1-ea14c95478c7","lat":27.389122,"lng":106.602855,"name":"贵州省金沙县沙土镇"},{"address":"贵州省纳雍县张家湾镇党委","id":"982cfc21-457a-4adf-8847-b35ac4f87cf0","lat":26.624409354994807,"lng":105.40196606255697,"name":"贵州省纳雍县张家湾镇党委"},{"address":"贵州省织金县上坪寨乡","id":"275521d5-7b1f-4f87-a8b3-53af9be4951c","lat":26.475682,"lng":106.036659,"name":"贵州省织金县上坪寨乡"},{"address":"贵州省威宁自治县板底乡","id":"c8fd6e30-28de-4e68-982e-586da9e1abfc","lat":26.922804,"lng":104.532121,"name":"贵州省威宁自治县板底乡"},{"address":"毕节市七星关区杨家湾镇","id":"dc1e3258-5e6e-4d5a-9b23-20d95b6eb090","lat":27.180026,"lng":104.979822,"name":"毕节市七星关区杨家湾镇"},{"address":"贵州省毕节金海湖新区（贵州毕节经济开发区）党工委","id":"43cb20b0-a1f6-4a46-8224-73f36de84587","lat":27.234485,"lng":105.437852,"name":"贵州省毕节金海湖新区（贵州毕节经济开发区）党工委"},{"address":"贵州省纳雍县锅圈岩乡党委","id":"920033c9-470b-4816-8740-cb3a770117c8","lat":26.918737,"lng":105.062708,"name":"贵州省纳雍县锅圈岩乡党委"},{"address":"贵州省大方县猫场镇人大","id":"82a641a1-5372-4bfc-bbcb-31f89d286067","lat":26.9894,"lng":105.356445,"name":"贵州省大方县猫场镇人大"},{"address":"贵州省纳雍县骔岭镇","id":"00769459-00b8-4e23-b8d1-5b47d837d312","lat":26.714005,"lng":105.278316,"name":"贵州省纳雍县骔岭镇"},{"address":"贵州省纳雍县曙光镇党委","id":"2e66fb53-67a2-4ed1-a8a6-308b2b19423b","lat":26.795102083008498,"lng":105.26868668571373,"name":"贵州省纳雍县曙光镇党委"},{"address":"贵州省大方县人民政府","id":"2bdc5571-5ce9-4587-b474-62d99e5fb8fd","lat":27.147861,"lng":105.619454,"name":"贵州省大方县人民政府"},{"address":"贵州省纳雍县居仁街道人大工委","id":"0690ca4a-fda0-49c1-96f0-7a1268b3a119","lat":26.795102083008498,"lng":105.26868668571373,"name":"贵州省纳雍县居仁街道人大工委"},{"address":"贵州省纳雍县寨乐镇人大主席团","id":"ca8c5926-2fa2-4329-bea6-51b1af034b75","lat":26.88136097925506,"lng":105.30808298594303,"name":"贵州省纳雍县寨乐镇人大主席团"},{"address":"贵州省赫章县政协","id":"5aacd5c0-e054-4b91-9a89-26e32e002c0f","lat":27.130968,"lng":104.732623,"name":"贵州省赫章县政协"},{"address":"中共威宁彝族回族苗族自治县委","id":"99fc56a7-8ae7-4902-8ab3-b2a4f03cb900","lat":26.865328,"lng":104.286282,"name":"中共威宁彝族回族苗族自治县委"},{"address":"贵州省威宁彝族回族苗族自治县人民检察院党组","id":"5dd8432d-d5bf-40ba-b3b3-6b6cb2dbbaf4","lat":26.87588,"lng":104.261265,"name":"贵州省威宁彝族回族苗族自治县人民检察院党组"},{"address":"贵州省纳雍县文体广电旅游局（县新闻出版局、县版权局）党组","id":"7ddbd56b-46da-4bbc-b14e-66e03f80ba63","lat":26.795102083008498,"lng":105.26868668571373,"name":"贵州省纳雍县文体广电旅游局（县新闻出版局、县版权局）党组"},{"address":"贵州省金沙县高坪镇人大主席团","id":"38665c4a-ab30-4b08-888e-ba13f598f641","lat":27.705454,"lng":105.961792,"name":"贵州省金沙县高坪镇人大主席团"},{"address":"贵州省威宁自治县小海镇","id":"e14a378f-86d6-4008-a934-9564daa77c84","lat":26.943421,"lng":104.189554,"name":"贵州省威宁自治县小海镇"},{"address":"贵州省毕节市大方县星宿乡","id":"0eb8a049-7f69-4e74-bd54-f67b95a156bb","lat":27.358381,"lng":105.881182,"name":"贵州省毕节市大方县星宿乡"},{"address":"贵州省黔西县钟山镇党委","id":"334f5d87-ce96-4501-a1f8-ff9b41888eb7","lat":26.9874607028814,"lng":106.24167569851993,"name":"贵州省黔西县钟山镇党委"},{"address":"贵州省毕节市七星关区龙场营镇人民政府","id":"014d89ea-d197-427f-a946-6d12637e5cfe","lat":27.666196,"lng":105.797948,"name":"贵州省毕节市七星关区龙场营镇人民政府"},{"address":"贵州省毕节市纳雍县文昌街道办事处","id":"9d2d6408-0818-4ef1-8a25-4aeae73d8adf","lat":26.776184,"lng":105.390006,"name":"贵州省毕节市纳雍县文昌街道办事处"},{"address":"贵州省威宁自治县东风镇","id":"35817310-4d44-43e6-9f3c-858b8c2f740e","lat":26.801878,"lng":104.595989,"name":"贵州省威宁自治县东风镇"},{"address":"贵州省毕节市七星关区鸭池镇人民政府","id":"23e968c0-fa1d-4558-8ff8-ad3d269c54c6","lat":27.274658,"lng":105.363878,"name":"贵州省毕节市七星关区鸭池镇人民政府"},{"address":"贵州省赫章县德卓乡","id":"e6b1be8a-c72c-49be-9e4e-b78943795aac","lat":27.332597,"lng":104.284995,"name":"贵州省赫章县德卓乡"},{"address":"贵州省威宁自治县炉山镇","id":"d55f80e6-1f92-43f7-ba4c-bfcff41e8752","lat":26.84427,"lng":104.442429,"name":"贵州省威宁自治县炉山镇"},{"address":"贵州省织金县桂果镇","id":"11a010da-0292-49c5-8341-a2a1547dc1f3","lat":26.61315,"lng":105.881948,"name":"贵州省织金县桂果镇"},{"address":"贵州省毕节市七星关区阴底乡","id":"4a32b909-0a21-4762-bb3a-5507975013b0","lat":27.115139,"lng":105.12471,"name":"贵州省毕节市七星关区阴底乡"},{"address":"贵州省织金县实兴乡","id":"6fa8d7be-d845-4c26-9cd0-213dab3168d6","lat":26.530946,"lng":105.897817,"name":"贵州省织金县实兴乡"},{"address":"贵州省金沙县沙土镇党委","id":"708b0d0b-8965-4073-adb2-ec562ad23645","lat":27.38870740849727,"lng":106.60275924414086,"name":"贵州省金沙县沙土镇党委"},{"address":"大水乡","id":"cc50d888-03dc-4d1c-a648-6e8a9d391098","lat":27.266127,"lng":105.993323,"name":"大水乡"},{"address":"贵州省金沙县安底镇政法委","id":"f1cb71ba-aa76-4186-9636-b44e247c8e4b","lat":27.402098256557167,"lng":106.44041036054655,"name":"贵州省金沙县安底镇政法委"},{"address":"贵州省纳雍县卫生和计划生育局","id":"085c8527-de3b-4abc-bdca-be8d3623903b","lat":26.795102083008498,"lng":105.26868668571373,"name":"贵州省纳雍县卫生和计划生育局"},{"address":"贵州省纳雍县董地乡人大","id":"7ea42348-5f2f-4a8e-937c-c3cb11623e02","lat":26.950643,"lng":105.248285,"name":"贵州省纳雍县董地乡人大"},{"address":"贵州百里杜鹃管理区黄泥彝族苗族满族乡","id":"8cc251b6-d8bb-4952-9661-fa9819247b1e","lat":27.303027187891207,"lng":106.07930703423828,"name":"贵州百里杜鹃管理区黄泥彝族苗族满族乡"},{"address":"贵州省威宁自治县黑土河镇","id":"7c5d2106-1dbc-4e68-9a93-58cb889b3360","lat":27.235935,"lng":103.911005,"name":"贵州省威宁自治县黑土河镇"},{"address":"贵州省金沙县源村镇人民政府","id":"3c244f1b-d27a-461a-a3b4-d5d2d0cf6a5b","lat":27.454961,"lng":106.673058,"name":"贵州省金沙县源村镇人民政府"},{"address":"贵州省威宁自治县陕桥街道办事处","id":"2c832a95-022b-4226-a6be-ff9ecd503272","lat":26.814038,"lng":104.339137,"name":"贵州省威宁自治县陕桥街道办事处"},{"address":"贵州省金沙县高坪乡党委","id":"1782d55a-9ea9-45b1-b9c6-f52321ab7b0b","lat":27.25110418976512,"lng":106.4118649369078,"name":"贵州省金沙县高坪乡党委"},{"address":"贵州省金沙县纪委第三纪律检查工作委员会","id":"c724120e-8526-4917-a84d-149b4fb13f89","lat":27.471542677861745,"lng":106.2268521592366,"name":"贵州省金沙县纪委第三纪律检查工作委员会"},{"address":"贵州省织金县珠藏镇","id":"0ca36ba7-8d31-4199-ab37-232d46cfa006","lat":26.543968,"lng":105.705271,"name":"贵州省织金县珠藏镇"},{"address":"黔西县观音洞镇","id":"a0c19eff-ddfc-4958-8532-25aadd8225cd","lat":26.850092,"lng":105.964931,"name":"黔西县观音洞镇"},{"address":"贵州省纳雍县维新镇党委","id":"3e46ca06-0a73-40d3-81e7-3e70a7925464","lat":27.012309355149743,"lng":105.2056661866482,"name":"贵州省纳雍县维新镇党委"},{"address":"贵州省金沙县禹谟镇政府","id":"fba49022-4239-42a2-a965-c4a4998c16cb","lat":27.379881,"lng":106.340432,"name":"贵州省金沙县禹谟镇政府"},{"address":"贵州省威宁自治县麻乍镇","id":"470ad655-d602-40cc-9027-2a1ff7b9773a","lat":26.661534,"lng":104.086333,"name":"贵州省威宁自治县麻乍镇"},{"address":"贵州省赫章县水塘堡乡","id":"c539877d-217e-4e7c-a783-4e10cdc40888","lat":27.094939,"lng":104.645262,"name":"贵州省赫章县水塘堡乡"},{"address":"贵州省黔西县太来乡党委委员","id":"5f2429ae-9bb3-4d9d-8498-d9d83b1f5a14","lat":27.063257687582592,"lng":106.35026191452974,"name":"贵州省黔西县太来乡党委委员"},{"address":"贵州省毕节市织金县司法局","id":"bb5252f6-94b5-47ad-9e8a-c70fedb83dc1","lat":26.669307,"lng":105.777694,"name":"贵州省毕节市织金县司法局"},{"address":"贵州省纳雍县沙包镇党委","id":"c2ecb6cf-a714-4eac-80b1-1464d71d65e4","lat":26.842246,"lng":105.368659,"name":"贵州省纳雍县沙包镇党委"},{"address":"贵州省纳雍县农牧局","id":"d429cd4b-8b10-4fd4-a829-3627a9d255fb","lat":26.777625,"lng":105.387555,"name":"贵州省纳雍县农牧局"},{"address":"贵州省大方县猫场镇人民政府","id":"2ad81029-7ad6-4165-894a-0adf2aefe0f9","lat":26.9894,"lng":105.356445,"name":"贵州省大方县猫场镇人民政府"},{"address":"贵州省纳雍县沙包镇政府","id":"6d57d754-dc4f-48d2-8a9b-7de409116ae4","lat":26.854877,"lng":105.398168,"name":"贵州省纳雍县沙包镇政府"},{"address":"贵州省纳雍县昆寨苗族彝族白族乡","id":"bbb5ac2a-5fe0-4e99-8b00-da7bd9273d87","lat":26.85004,"lng":105.127831,"name":"贵州省纳雍县昆寨苗族彝族白族乡"},{"address":"贵州省毕节市七星关区发展和改革局","id":"ebff0f94-73c8-4bfe-9075-b446e94ace1c","lat":27.307704,"lng":105.312541,"name":"贵州省毕节市七星关区发展和改革局"},{"address":"贵州省金沙县石场乡政府","id":"25484b13-0dce-4eb8-8b7d-2a463c321ef3","lat":27.601141,"lng":106.018171,"name":"贵州省金沙县石场乡政府"},{"address":"贵州省金沙县安洛乡政府","id":"37fbe7e8-ef86-406f-9352-aaaa50021d91","lat":27.344068,"lng":106.099749,"name":"贵州省金沙县安洛乡政府"},{"address":"贵州省织金县龙场镇人民政府","id":"cd5e75fc-7fdb-491f-a2ac-1a0e8a15047c","lat":26.754645,"lng":106.085068,"name":"贵州省织金县龙场镇人民政府"},{"address":"贵州省毕节市七星关区田坝桥镇","id":"ff9ceb62-60c2-44ac-9ca7-1df9db707d3e","lat":27.367749,"lng":105.330329,"name":"贵州省毕节市七星关区田坝桥镇"},{"address":"贵州百里杜鹃管理区人力资源和社会保障局","id":"d6faf341-eb4b-45f7-9839-4b33cab0405d","lat":27.217033,"lng":105.875028,"name":"贵州百里杜鹃管理区人力资源和社会保障局"},{"address":"贵州省威宁自治县人大常委会财经委员会","id":"25fc44e1-1633-4e86-92f9-baf46bdf802c","lat":26.912946643101318,"lng":104.13788406340932,"name":"贵州省威宁自治县人大常委会财经委员会"},{"address":"贵州省百里杜鹃管理区百纳乡","id":"f3314565-7e71-4ed8-a87f-0a6810fd765d","lat":25.698024856615813,"lng":100.16742694064195,"name":"贵州省百里杜鹃管理区百纳乡"},{"address":"贵州省毕节市七星关区小吉场镇人民政府","id":"145834ec-b7e1-46dc-868d-f329cc151081","lat":27.515923,"lng":105.524804,"name":"贵州省毕节市七星关区小吉场镇人民政府"},{"address":"贵州省黔西县莲城街道","id":"0938d275-d58a-429b-99a1-9ac3047204f3","lat":27.012226,"lng":106.048828,"name":"贵州省黔西县莲城街道"},{"address":"贵州省纳雍县张家湾镇民生项目监督特派组","id":"6884943d-0392-40f7-83e1-8aa088429662","lat":26.624678808006916,"lng":105.4018145354853,"name":"贵州省纳雍县张家湾镇民生项目监督特派组"},{"address":"贵州省金沙县残疾人联合会","id":"a82a7548-65e8-42cd-aac1-97286bdb808f","lat":27.469099,"lng":106.235712,"name":"贵州省金沙县残疾人联合会"},{"address":"九三学社贵州省威宁自治县工作委员会","id":"d813357c-6fba-4a1a-9f56-cd30ba280014","lat":26.912946643101318,"lng":104.13788406340932,"name":"九三学社贵州省威宁自治县工作委员会"},{"address":"贵州赫章县罗州乡","id":"170c6e19-c7fa-450a-a44a-2e4d2aef1e52","lat":27.125225,"lng":104.539165,"name":"贵州赫章县罗州乡"},{"address":"贵州省大方县共青团大方县委","id":"c7402c83-e191-47b0-827d-69a755d46a14","lat":27.253059626031487,"lng":105.73720221998492,"name":"贵州省大方县共青团大方县委"},{"address":"贵州省金沙县木孔镇人民政府","id":"3003a183-1300-46c2-a01b-cfa37cee9a89","lat":27.488041,"lng":106.553566,"name":"贵州省金沙县木孔镇人民政府"},{"address":"毕节市人大常委会贵州百里杜鹃工作委员会","id":"206f498a-6da9-4fb6-ab42-4aea177b0de1","lat":27.228697,"lng":105.846785,"name":"毕节市人大常委会贵州百里杜鹃工作委员会"},{"address":"贵州省织金县三塘镇人民政府","id":"9cfd86f2-3d3d-4dcf-9c03-071d77164a83","lat":26.581166,"lng":105.565529,"name":"贵州省织金县三塘镇人民政府"},{"address":"贵州省大方县雨冲乡党委","id":"13a99f9b-4465-4673-9129-c2eb79fe8e41","lat":27.377874,"lng":106.011208,"name":"贵州省大方县雨冲乡党委"},{"address":"贵州省黔西县重新镇委员会","id":"d6c33b22-0f2b-4c5c-8e9f-fc7b895d6589","lat":27.305208,"lng":106.27042,"name":"贵州省黔西县重新镇委员会"},{"address":"贵州省金沙县平坝镇人民政府","id":"dd2e82eb-4322-4344-aa56-9d63f33b12b6","lat":27.510746,"lng":106.162195,"name":"贵州省金沙县平坝镇人民政府"},{"address":"民进毕节市工作委员会","id":"58437cae-18dc-4b45-b381-42bdce43caed","lat":43.9083611948252,"lng":126.55730346676181,"name":"民进毕节市工作委员会"},{"address":"贵州省赫章县兴发苗族彝族回族乡","id":"e2c621f0-6054-4ea4-b56f-4c27f5ecf6cc","lat":26.94982,"lng":104.822835,"name":"贵州省赫章县兴发苗族彝族回族乡"},{"address":"贵州省金沙县岩孔街道纪工委","id":"321ab91a-d93a-4048-a510-1cb91a272263","lat":27.36152179930772,"lng":106.63769428522589,"name":"贵州省金沙县岩孔街道纪工委"},{"address":"贵州省毕节市工商联(市商会)","id":"8b4abc9d-ea72-43e4-bd2f-ab6b0038960c","lat":29.874516049032504,"lng":121.55250883463134,"name":"贵州省毕节市工商联(市商会)"},{"address":"贵州省毕节市大河乡七星关区大河乡人民政府","id":"335f041f-3385-4719-a4b9-c87049f3d4bf","lat":27.248739,"lng":104.953378,"name":"贵州省毕节市大河乡七星关区大河乡人民政府"},{"address":"贵州省毕节市七星关区纪委","id":"1477d56c-d62c-4ce4-868f-01ec1e7b9216","lat":27.30583,"lng":105.311777,"name":"贵州省毕节市七星关区纪委"},{"address":"贵州省大方县牛场苗族彝族乡党委","id":"8d3ec85c-55f0-42d3-b440-10274d125888","lat":26.924876,"lng":105.567305,"name":"贵州省大方县牛场苗族彝族乡党委"},{"address":"贵州省毕节市七星关区生机镇纪委、民生监督组","id":"381f9be0-5f86-4e21-9f4d-b8e58ceb8a9a","lat":27.724781116191217,"lng":105.48978658757426,"name":"贵州省毕节市七星关区生机镇纪委、民生监督组"},{"address":"贵州省大方县绿塘乡人民政府","id":"cce8514d-70c0-4ace-b17e-963d78a878d8","lat":27.063499,"lng":105.462448,"name":"贵州省大方县绿塘乡人民政府"},{"address":"贵州威宁自治县财政","id":"90e765ee-b87f-4530-88ac-12800429b294","lat":26.881211,"lng":104.254099,"name":"贵州威宁自治县财政"},{"address":"贵州省毕节市七星关区实绩考核办公室","id":"73b4b35b-41d4-4de1-91f9-a854ab95804a","lat":27.304165,"lng":105.311621,"name":"贵州省毕节市七星关区实绩考核办公室"},{"address":"州省毕节市七星关区政协提案法制委员会","id":"618610d3-efd6-441e-8b0c-2c5cad31a9bb","lat":27.30416540128955,"lng":105.31162060915884,"name":"州省毕节市七星关区政协提案法制委员会"},{"address":"贵州省纳雍县张家湾镇人民政府","id":"a53fc50e-22c3-4d55-bf78-5f1c4aa7ee06","lat":26.624679,"lng":105.401815,"name":"贵州省纳雍县张家湾镇人民政府"},{"address":"贵州省毕节市七星关区区委办","id":"382ceeed-19eb-48c4-b243-2066ddb032d7","lat":27.464053316004616,"lng":105.42355760083845,"name":"贵州省毕节市七星关区区委办"},{"address":"贵州百里杜鹃人力资源和社会保障局","id":"c6097b60-bccb-405a-8d88-a286b90b24fc","lat":27.217033,"lng":105.875028,"name":"贵州百里杜鹃人力资源和社会保障局"},{"address":"贵州省大方县六龙镇党委","id":"375aaa5d-4d20-4545-81f5-5a136bbe3fd9","lat":27.174142139533974,"lng":105.70576328423165,"name":"贵州省大方县六龙镇党委"},{"address":"贵州省赫章县妈姑镇人民政府","id":"50c3384c-a5da-435f-8eb7-5f31097c809b","lat":27.01427,"lng":104.588729,"name":"贵州省赫章县妈姑镇人民政府"},{"address":"贵州省毕节市七星关区中华职业教育社","id":"7dab982e-b1f8-408d-a5c6-cb83ddd52988","lat":27.464053316004616,"lng":105.42355760083845,"name":"贵州省毕节市七星关区中华职业教育社"},{"address":"贵州省金沙县人民法院","id":"8802c8d9-4f57-4d02-8302-a28171d00f9b","lat":27.472286,"lng":106.245429,"name":"贵州省金沙县人民法院"},{"address":"贵州省黔西县新仁乡政府","id":"c571649e-c710-478b-bbc2-b2fcc5850d57","lat":26.862163,"lng":106.105086,"name":"贵州省黔西县新仁乡政府"},{"address":"贵州省大方县核桃乡政法委","id":"24fef486-4db3-488b-9ce1-1a479ff48f90","lat":27.299942930274295,"lng":105.63220886130179,"name":"贵州省大方县核桃乡政法委"},{"address":"贵州省毕节市七星关城市综合执法大队","id":"bc6e131b-314e-4561-9fff-7a70cb0b64e5","lat":27.464053316004616,"lng":105.42355760083845,"name":"贵州省毕节市七星关城市综合执法大队"},{"address":"贵州省金沙县太平彝族苗族乡人民政府武装部","id":"26c04faf-5534-4024-a9ae-4cb9c605fa22","lat":27.594799736554243,"lng":105.9237309034749,"name":"贵州省金沙县太平彝族苗族乡人民政府武装部"},{"address":"黔西县莲城街道","id":"f08b4ac8-0be0-4283-9791-77181304413b","lat":27.012226,"lng":106.048828,"name":"黔西县莲城街道"},{"address":"贵州省金沙县岩孔街道党工委人大工委","id":"d2f720d4-0c12-400d-a687-7caf5dde112c","lat":27.36152179930772,"lng":106.63769428522589,"name":"贵州省金沙县岩孔街道党工委人大工委"},{"address":"贵州毕节金海湖新区（贵州毕节经济开发区）岔河镇","id":"d0babb3f-fcba-46a3-94f3-363b4029da70","lat":27.234485,"lng":105.437852,"name":"贵州毕节金海湖新区（贵州毕节经济开发区）岔河镇"},{"address":"贵州毕节金海湖新区（贵州毕节经济开发区）岔河镇党委","id":"ef2e89a4-fcf1-4c24-b7cd-b82fe5acc321","lat":27.234485,"lng":105.437852,"name":"贵州毕节金海湖新区（贵州毕节经济开发区）岔河镇党委"},{"address":"威宁自治县龙街镇","id":"2d9ef9c1-2124-446a-82ff-9502b6749c96","lat":27.151787,"lng":104.025061,"name":"威宁自治县龙街镇"},{"address":"贵州省黔西县雨朵镇人民政府","id":"4936d5a4-5699-4206-8f05-b1e5ea6fe14d","lat":26.909461,"lng":106.048372,"name":"贵州省黔西县雨朵镇人民政府"},{"address":"贵州省纳雍县勺窝乡党委","id":"dc312a5b-d627-4e1c-b7f1-8775e1f427c3","lat":26.76147155631675,"lng":105.28465167485905,"name":"贵州省纳雍县勺窝乡党委"},{"address":"贵州省毕节市七星关区海子街镇","id":"8612f17b-a567-4391-bb53-73d36ccb28af","lat":27.372721,"lng":105.394308,"name":"贵州省毕节市七星关区海子街镇"},{"address":"贵州省毕节市七星关区洪山街道（社区服务中心）","id":"3c2a6150-49b9-43db-b35e-36f8b12f41d9","lat":27.299554,"lng":105.300357,"name":"贵州省毕节市七星关区洪山街道（社区服务中心）"},{"address":"贵州省黔西县农牧局","id":"04472c3c-134d-41ac-ac4c-d243000f2201","lat":27.031738,"lng":106.048552,"name":"贵州省黔西县农牧局"},{"address":"贵州省织金县政协","id":"65d04307-3af9-4fb3-8c72-b8877418bd11","lat":26.669201,"lng":105.776598,"name":"贵州省织金县政协"},{"address":"贵州省黔西县绿化白族彝族乡","id":"4f8ebd6e-90f2-41d6-8770-38c7f4fba770","lat":26.944585,"lng":106.106831,"name":"贵州省黔西县绿化白族彝族乡"},{"address":"贵州省威宁自治县中水镇计划生育协会","id":"467f87eb-e97b-45bf-875f-4db215cbc074","lat":26.872129,"lng":104.295484,"name":"贵州省威宁自治县中水镇计划生育协会"},{"address":"中共贵州省毕节市七星关区大屯彝族乡纪律检查委员会","id":"3eded1c8-5f11-40af-a426-c7cf515a8e78","lat":27.66580047740254,"lng":105.75282445886641,"name":"中共贵州省毕节市七星关区大屯彝族乡纪律检查委员会"},{"address":"贵州百里杜鹃鹏程管理区","id":"4dfc3b43-fdf9-4049-9bba-4e9c101b3c2e","lat":27.23756,"lng":105.835974,"name":"贵州百里杜鹃鹏程管理区"},{"address":"贵州省黔西县定新彝族苗族乡人大","id":"eb855961-328d-4d88-8018-45592eefcf4b","lat":27.068381,"lng":106.267667,"name":"贵州省黔西县定新彝族苗族乡人大"},{"address":"贵州省赫章县朱明乡","id":"7bfb97c3-81d2-4042-a37b-19ecde59c626","lat":27.223502,"lng":104.549744,"name":"贵州省赫章县朱明乡"},{"address":"贵州省毕节市七星关区碧海街道办事处党工委","id":"0a6b59de-7ac3-4232-a612-47c9e0dd9d65","lat":27.363493,"lng":105.431819,"name":"贵州省毕节市七星关区碧海街道办事处党工委"},{"address":"贵州省金沙县安底镇人大","id":"b6f7e066-1408-487f-ac31-2065baf52437","lat":27.402098256557167,"lng":106.44041036054655,"name":"贵州省金沙县安底镇人大"},{"address":"贵州省毕节市七星关区人民检察院","id":"c41c3e80-25bd-4562-b53e-8f0f399fbe7d","lat":27.300818,"lng":105.309026,"name":"贵州省毕节市七星关区人民检察院"},{"address":"贵州省赫章县铁匠乡","id":"0a24156c-378a-42ff-a8f5-7ba4528b3db1","lat":27.04701,"lng":104.353646,"name":"贵州省赫章县铁匠乡"},{"address":"贵州省金沙县冷水河风景管理委员会","id":"7332e383-c60a-46c2-9c05-8640af1b98b2","lat":27.51757233191144,"lng":106.0228635121992,"name":"贵州省金沙县冷水河风景管理委员会"},{"address":"贵州省纳雍县居仁街道政法委","id":"fe9ee6e2-8ba6-41ef-be3a-afe54a3824e0","lat":26.795102083008498,"lng":105.26868668571373,"name":"贵州省纳雍县居仁街道政法委"},{"address":"贵州省纳雍县民政局","id":"c4ca6f60-4e66-4cbc-98a6-f981f2462d87","lat":26.782619,"lng":105.391323,"name":"贵州省纳雍县民政局"},{"address":"贵州省纳雍县监察局第三监察分局","id":"a6a37b69-fef5-42f2-8a8b-c91fcb6421a8","lat":26.795102083008498,"lng":105.26868668571373,"name":"贵州省纳雍县监察局第三监察分局"},{"address":"贵州省毕节市威宁自治县哲觉镇","id":"7c21d560-1d00-4f1f-b9e1-1a09a521391b","lat":26.542863,"lng":103.921128,"name":"贵州省毕节市威宁自治县哲觉镇"},{"address":"贵州省毕节市市东办事处","id":"333d0113-b834-4bfc-a423-59130d2914fb","lat":27.320811,"lng":105.303087,"name":"贵州省毕节市市东办事处"},{"address":"贵州省织金县鸡场乡财政分局","id":"30db3702-7c1c-43a7-b517-cdb08eb417df","lat":26.501544259130828,"lng":105.38318950113252,"name":"贵州省织金县鸡场乡财政分局"},{"address":"贵州省纳雍县维新镇人大主席团","id":"53094a5c-4982-42b7-9249-ec1da96883e8","lat":27.012221667912588,"lng":105.205689988151,"name":"贵州省纳雍县维新镇人大主席团"},{"address":"贵州省七星关区小吉场人民政府","id":"01380f04-b0ed-4f2b-917d-57d9afdbe1a8","lat":27.515923,"lng":105.524804,"name":"贵州省七星关区小吉场人民政府"},{"address":"贵州省毕节市金海湖新区（贵州毕节经济开发区）梨树镇党委","id":"4761529f-6a3a-4898-b8fe-d433f2d9523a","lat":27.234485,"lng":105.437852,"name":"贵州省毕节市金海湖新区（贵州毕节经济开发区）梨树镇党委"},{"address":"贵州省威宁自治县民族和宗教事务局党委","id":"b71421b4-7ae7-4cd0-96d6-65f7c8824046","lat":26.912946643101318,"lng":104.13788406340932,"name":"贵州省威宁自治县民族和宗教事务局党委"},{"address":"贵州省毕节市纳雍县阳长镇人民政府","id":"0ab2d067-e525-4d2d-a15a-094ec00a459b","lat":26.634026,"lng":105.19574,"name":"贵州省毕节市纳雍县阳长镇人民政府"},{"address":"贵州省赫章县松林坡白族彝族苗族乡","id":"6f795862-7b02-43b7-850c-e25f4b85d8d4","lat":26.883835,"lng":104.894474,"name":"贵州省赫章县松林坡白族彝族苗族乡"},{"address":"贵州百里杜鹃管理区沙厂彝族乡","id":"397c21b1-9190-4684-8a90-95c6511a530d","lat":27.228697,"lng":105.846785,"name":"贵州百里杜鹃管理区沙厂彝族乡"},{"address":"贵州省纳雍县玉龙坝镇党委","id":"f1db659b-e743-489c-8c32-d452916a5ce2","lat":26.839143,"lng":105.536947,"name":"贵州省纳雍县玉龙坝镇党委"},{"address":"贵州省毕节市七星关区农业机械事业局","id":"e715f57a-e653-47a8-94e7-6b63eceee11c","lat":27.320424,"lng":105.298931,"name":"贵州省毕节市七星关区农业机械事业局"},{"address":"贵州省大方县东关乡","id":"fde27b12-58f0-4e6d-b74e-6e5cc1050617","lat":27.231919,"lng":105.61967,"name":"贵州省大方县东关乡"},{"address":"贵州省赫章县人大常委会","id":"15e0befd-ee61-47a4-815d-5161ba862573","lat":27.130683,"lng":104.732424,"name":"贵州省赫章县人大常委会"},{"address":"贵州省黔西县人民政府","id":"89441e60-5354-4476-81a2-1df84f0ae297","lat":27.013891,"lng":106.03925,"name":"贵州省黔西县人民政府"},{"address":"贵州省大方县鼎新乡","id":"f3ce0f37-bbc9-4ddd-b290-918b240d9863","lat":27.007608,"lng":105.390578,"name":"贵州省大方县鼎新乡"},{"address":"贵州省纳雍县张家湾镇","id":"595e0762-3be6-42ae-bd6d-a5d39789658e","lat":26.624405,"lng":105.401959,"name":"贵州省纳雍县张家湾镇"},{"address":"贵州省纳雍县董地乡","id":"a23a2695-559a-4559-b450-0c465b796262","lat":26.949864,"lng":105.247757,"name":"贵州省纳雍县董地乡"},{"address":"贵州省纳雍县乐治镇","id":"03fd2a8c-1327-4e68-9d21-df62062affa6","lat":26.838922,"lng":105.478663,"name":"贵州省纳雍县乐治镇"},{"address":"贵州省毕节市七星关区委宣传部","id":"ac865f97-c76a-4c56-87b2-4f12365301a6","lat":27.146388,"lng":105.617589,"name":"贵州省毕节市七星关区委宣传部"},{"address":"贵州省金沙县交通运输局农村公路管理所","id":"132989ad-c46a-4f55-89d3-807e79e564b7","lat":27.461367,"lng":106.23389,"name":"贵州省金沙县交通运输局农村公路管理所"},{"address":"贵州省七星关区纪委党群部门纪工委","id":"60f1b0d2-6f24-4f44-9c29-ceb5ceee9fb0","lat":27.305836,"lng":105.311777,"name":"贵州省七星关区纪委党群部门纪工委"},{"address":"贵州省金沙县茶园镇人大","id":"ec497a59-ddba-420b-9a9b-9c8c6ae29bf7","lat":27.471542677861745,"lng":106.2268521592366,"name":"贵州省金沙县茶园镇人大"},{"address":"贵州省黔西县谷里镇政府","id":"0d38e6d3-0d2c-498f-91bd-61bbe0474770","lat":26.988409,"lng":106.177261,"name":"贵州省黔西县谷里镇政府"},{"address":"九三学社贵州省毕节市委员会","id":"2bf55944-430c-4143-a2ff-63a2c9ba6137","lat":27.288304,"lng":105.298841,"name":"九三学社贵州省毕节市委员会"},{"address":"贵州省毕节市七星关区何官屯镇","id":"74f87445-69c7-4889-9593-946a0197a67a","lat":27.370725,"lng":105.263744,"name":"贵州省毕节市七星关区何官屯镇"},{"address":"贵州省黔西县大关镇人民政","id":"2d6000e6-457f-4517-8483-b79b92c07204","lat":26.888231,"lng":106.17235,"name":"贵州省黔西县大关镇人民政"},{"address":"贵州省毕节市织金经济开发区","id":"f0dbb438-c40c-4a56-aa87-a582299d8051","lat":26.833073,"lng":105.809744,"name":"贵州省毕节市织金经济开发区"},{"address":"共青团贵州省毕节市委员会","id":"91b65cdd-a3f9-4f1a-b4fe-50e6b3739196","lat":26.702535,"lng":103.999353,"name":"共青团贵州省毕节市委员会"},{"address":"贵州省金沙县西洛街道办事处","id":"076c5acf-6292-4a1f-a8bb-8fa865d1a156","lat":27.46539,"lng":106.224565,"name":"贵州省金沙县西洛街道办事处"},{"address":"贵州省金沙县茶园镇武装部","id":"416bb396-bd29-4f2e-b8b7-a9839f874910","lat":27.471542677861745,"lng":106.2268521592366,"name":"贵州省金沙县茶园镇武装部"},{"address":"贵州毕节金海湖新区（贵州毕节经济开发区）竹园乡党委","id":"d0361804-3331-4deb-818b-75d7de12a5f8","lat":27.234485,"lng":105.437852,"name":"贵州毕节金海湖新区（贵州毕节经济开发区）竹园乡党委"},{"address":"贵州省毕节市黔西县人民政府","id":"1aa995db-6502-4fa2-bd83-d20665af08c8","lat":27.013891,"lng":106.03925,"name":"贵州省毕节市黔西县人民政府"},{"address":"贵州省毕节市金海湖新区（贵州毕节经济开发区）梨树镇","id":"7f7dd3d5-9f16-41e1-9112-7b93672357ba","lat":27.234485,"lng":105.437852,"name":"贵州省毕节市金海湖新区（贵州毕节经济开发区）梨树镇"},{"address":"贵州省大方县红旗街道人大工委","id":"86fa6530-99c9-4155-b1ce-acdbf4c180ea","lat":27.253059626031487,"lng":105.73720221998492,"name":"贵州省大方县红旗街道人大工委"},{"address":"兼任贵州省毕节市金海湖新区金海湖办事处党委","id":"058e4121-835e-4f78-95c6-7111a695e95d","lat":40.185158737486006,"lng":117.27299748200583,"name":"兼任贵州省毕节市金海湖新区金海湖办事处党委"},{"address":"贵州省毕节市七星关区环保局副局长","id":"e7507f6c-6ba2-4f0f-aee0-37d445cc48d5","lat":27.304165,"lng":105.31162,"name":"贵州省毕节市七星关区环保局副局长"},{"address":"贵州省赫章县","id":"dbbfa347-885e-46ff-afed-924dd9220036","lat":27.135471,"lng":104.638175,"name":"贵州省赫章县"},{"address":"织金县交通运输局","id":"4c421e32-b9d9-4860-ab84-282e7f4f0bff","lat":26.675732,"lng":105.778212,"name":"织金县交通运输局"},{"address":"贵州省织金县双堰街道办事处","id":"7988bdf9-3f61-4150-9bd4-52bbd7194af8","lat":26.673287,"lng":105.780505,"name":"贵州省织金县双堰街道办事处"},{"address":"贵州省纳雍县文化体育广播电视旅游局（新闻出版局、版权局）党组","id":"fae27aa8-b570-48bb-9194-cb8416cc2ae6","lat":26.78339895006521,"lng":105.38871344760996,"name":"贵州省纳雍县文化体育广播电视旅游局（新闻出版局、版权局）党组"},{"address":"贵州省纳雍县经济开发区党工委","id":"35ee1efd-a210-4063-abf1-1d78e4201a4e","lat":26.795102083008498,"lng":105.26868668571373,"name":"贵州省纳雍县经济开发区党工委"},{"address":"贵州省毕节市七星关区团结乡","id":"7d7b3975-18c6-4605-ba59-53fb1d146deb","lat":27.717009,"lng":105.38392,"name":"贵州省毕节市七星关区团结乡"},{"address":"贵州织金县三塘镇","id":"a2ba0790-18fb-48fb-856b-47b1a788105f","lat":26.577699,"lng":105.555211,"name":"贵州织金县三塘镇"},{"address":"贵州省毕节职业技术学院","id":"748fea19-6146-4c5c-81b5-fe7a507c6037","lat":27.303044,"lng":105.32401,"name":"贵州省毕节职业技术学院"},{"address":"贵州省黔西县杜鹃街道办事处","id":"9b9953e7-0563-4eaf-9eff-2a8817d9aeb9","lat":27.032327,"lng":106.034092,"name":"贵州省黔西县杜鹃街道办事处"},{"address":"贵州省织金县化起镇","id":"19421fff-edc8-4fe4-8323-49b0926c8ff9","lat":26.706958,"lng":106.020405,"name":"贵州省织金县化起镇"},{"address":"贵州省纳雍县锅圈岩乡计生协会","id":"f5bd0d47-b7f4-4c63-be37-0036d86c3fdb","lat":26.918431376453686,"lng":105.06264418170478,"name":"贵州省纳雍县锅圈岩乡计生协会"},{"address":"贵州省黔西县五里乡党委","id":"952aeb7b-9fa5-45c9-b07e-38e91d6b70a1","lat":26.89198297010023,"lng":105.9214874896679,"name":"贵州省黔西县五里乡党委"},{"address":"贵州省纳雍县姑开苗族彝族乡人民政府","id":"88ae9607-aca6-45e1-9db3-1a7ddd8dcc71","lat":27.007127,"lng":105.104359,"name":"贵州省纳雍县姑开苗族彝族乡人民政府"},{"address":"贵州省纳雍县姑开苗族彝族乡人民政府党委","id":"90b4abc8-5c57-446a-9534-6374c0d1af69","lat":27.00712681766339,"lng":105.10435849372551,"name":"贵州省纳雍县姑开苗族彝族乡人民政府党委"},{"address":"贵州省毕节市七星关区人民法院","id":"3205fe9f-8d23-4241-a2c6-009fbbc40f03","lat":27.299007,"lng":105.313552,"name":"贵州省毕节市七星关区人民法院"},{"address":"贵州省黔西县人民检察院","id":"4302b4f6-ad96-4643-92bb-bba4d8b5664f","lat":27.025555,"lng":106.045883,"name":"贵州省黔西县人民检察院"},{"address":"贵州省大方县东关乡人大","id":"902189d9-631b-4eff-9147-2213c09408b2","lat":27.231929,"lng":105.61967,"name":"贵州省大方县东关乡人大"},{"address":"贵州省黔西县太来乡党委","id":"6ff6303d-d5e8-4c95-a6ed-b47736ed8b2e","lat":27.063123,"lng":106.349563,"name":"贵州省黔西县太来乡党委"},{"address":"贵州百里杜鹃管理区纪工委","id":"9e20985c-bc87-4f79-99c7-d51cd70fdd7d","lat":25.698024856615813,"lng":100.16742694064195,"name":"贵州百里杜鹃管理区纪工委"},{"address":"贵州省节市七星关区田坎彝族乡","id":"745a920d-cffb-44cf-a1bb-2db25c2381ce","lat":27.704533176166265,"lng":105.85832498646741,"name":"贵州省节市七星关区田坎彝族乡"},{"address":"贵州省黔西县纪律检查委员会","id":"85f8dbf0-e9ef-4c3a-82a7-1e43c07d6bdb","lat":27.034827,"lng":106.041552,"name":"贵州省黔西县纪律检查委员会"},{"address":"贵州省毕节市七星关区杨家湾镇党委","id":"44d78271-3ff3-4109-b4df-e1de16b1999e","lat":27.18002616482284,"lng":104.97982186986542,"name":"贵州省毕节市七星关区杨家湾镇党委"},{"address":"贵州省金沙县纪律检查委员会第一纪律检查工作委员会","id":"05040a81-aa7f-47bb-b057-a29617272b79","lat":27.470543,"lng":106.235473,"name":"贵州省金沙县纪律检查委员会第一纪律检查工作委员会"},{"address":"贵州毕节金海湖新区（贵州毕节经济开发区）土地房屋征收补偿局","id":"9c5a0945-48c6-42c5-be8e-e449415aa55f","lat":27.234485,"lng":105.437852,"name":"贵州毕节金海湖新区（贵州毕节经济开发区）土地房屋征收补偿局"},{"address":"贵州省纳雍县","id":"da3f6274-6165-44ce-a977-a7538446f60d","lat":26.808509,"lng":105.283876,"name":"贵州省纳雍县"},{"address":"贵州省金沙县柳塘镇人大","id":"b0caa749-7eef-4d7c-8acb-b072aadbc9b0","lat":27.420465,"lng":106.245682,"name":"贵州省金沙县柳塘镇人大"},{"address":"贵州省毕节市城市管理局七星关分局","id":"dbde597c-4f6d-4cb9-9dc2-ead49503e1e1","lat":27.464053316004616,"lng":105.42355760083845,"name":"贵州省毕节市城市管理局七星关分局"},{"address":"贵州威宁自治县牛棚镇","id":"676339a6-271f-487f-b164-60c10fb38494","lat":27.094752,"lng":103.827696,"name":"贵州威宁自治县牛棚镇"},{"address":"贵州省黔西县观音洞镇党委","id":"deba795a-c5a5-480b-a2e6-1d25b648bc4d","lat":26.850092258082064,"lng":105.96493133803219,"name":"贵州省黔西县观音洞镇党委"},{"address":"贵州毕节经济开发区小坝镇","id":"40e9f1d0-95a8-4b20-a375-dd6c49608f8c","lat":27.331402,"lng":105.500308,"name":"贵州毕节经济开发区小坝镇"},{"address":"贵州省毕节市七星关区千溪乡人民政府","id":"409cde1e-0e63-407c-b433-c4ebe243ed96","lat":27.182899,"lng":105.220646,"name":"贵州省毕节市七星关区千溪乡人民政府"},{"address":"贵州省百里杜鹃管理区百纳乡人","id":"5f9bae3c-7a98-4c02-b3a2-904309f8387a","lat":25.698024856615813,"lng":100.16742694064195,"name":"贵州省百里杜鹃管理区百纳乡人"},{"address":"贵州省金沙县马路乡人民政府","id":"192a5da4-7196-432b-a8c8-d0ce231c04a5","lat":27.405303,"lng":106.124049,"name":"贵州省金沙县马路乡人民政府"},{"address":"贵州省毕节市妇女联合会党组","id":"0473c641-af71-40f3-8bac-6d75b43b0e64","lat":27.203935,"lng":105.319593,"name":"贵州省毕节市妇女联合会党组"},{"address":"贵州省威宁自治县小海镇人民政府","id":"e39a7ad5-4c75-43f8-a0e7-a81f9632a72d","lat":26.943421,"lng":104.189554,"name":"贵州省威宁自治县小海镇人民政府"},{"address":"贵州省黔西县谷里镇","id":"3542a81f-e3b6-4789-a7af-5c2b6a4fac11","lat":26.988411,"lng":106.177291,"name":"贵州省黔西县谷里镇"},{"address":"贵州省威宁自治县政协","id":"356ce2cb-fff2-4aba-b39f-89d884fe66fc","lat":26.862793,"lng":104.285167,"name":"贵州省威宁自治县政协"},{"address":"贵州省金沙县大田乡党委","id":"e006af80-8466-4e69-9dfc-dce35103bdb5","lat":27.401410791254296,"lng":106.05562148023745,"name":"贵州省金沙县大田乡党委"},{"address":"威宁自治县档案局（馆）","id":"7edce29a-1d57-403b-970c-92a2d3e3aad0","lat":27.305794,"lng":105.311719,"name":"威宁自治县档案局（馆）"},{"address":"贵州省黔西县素朴镇党委","id":"b27f138f-de10-4214-b513-ae1f28d4ce87","lat":26.996288,"lng":106.354061,"name":"贵州省黔西县素朴镇党委"},{"address":"贵州省纳雍县沙包乡民生项目监督特派组","id":"155b694a-e4e2-43a3-a69e-5dd91360612d","lat":26.85487727165227,"lng":105.39816772682799,"name":"贵州省纳雍县沙包乡民生项目监督特派组"},{"address":"贵州省大方县红旗街道办事处","id":"4db611f1-5f87-4166-b88f-dad03768eadf","lat":27.149723,"lng":105.614924,"name":"贵州省大方县红旗街道办事处"},{"address":"贵州省毕节市七星关区台办","id":"1246dbd0-184e-44a0-9d4d-9ccf6ad35f86","lat":27.464053316004616,"lng":105.42355760083845,"name":"贵州省毕节市七星关区台办"},{"address":"贵州省大方县红旗街道政法委","id":"8183e924-9c6e-462e-8c04-0e9c840ebf8c","lat":27.253059626031487,"lng":105.73720221998492,"name":"贵州省大方县红旗街道政法委"},{"address":"贵州省纳雍县猪场苗族彝族乡宣传委员会","id":"0109cd28-81c3-4b30-b523-42bff53e2a5b","lat":26.80888881069503,"lng":105.13136758138326,"name":"贵州省纳雍县猪场苗族彝族乡宣传委员会"},{"address":"农工党贵州省毕节市第二届委员会","id":"56b3130a-75fb-4ebc-b1c1-4551bac6b798","lat":26.672742766661667,"lng":119.53286365234086,"name":"农工党贵州省毕节市第二届委员会"},{"address":"贵州省毕节市黔西县谷里镇","id":"a3cc95d0-bee1-4243-83e8-820c009da1b9","lat":26.988411,"lng":106.177291,"name":"贵州省毕节市黔西县谷里镇"},{"address":"贵州省织金县熊家场镇人民政府","id":"c264fc55-f69d-4569-a112-a9dbc0f1a16e","lat":26.467033,"lng":105.706121,"name":"贵州省织金县熊家场镇人民政府"},{"address":"贵州省市大方县长石镇","id":"858bd1ed-cb69-4d0e-be51-40ef44904ce9","lat":27.555005,"lng":105.763471,"name":"贵州省市大方县长石镇"},{"address":"贵州省毕节市红十字会","id":"ca754e6b-1f3a-44a2-b519-60e8aa0b1882","lat":26.774324,"lng":105.390222,"name":"贵州省毕节市红十字会"},{"address":"贵州省大方县教育局党组","id":"4c5ed01b-ad6c-4774-bacd-3a9919c2afe0","lat":27.147304,"lng":105.610401,"name":"贵州省大方县教育局党组"},{"address":"贵州省威宁自治县农牧局干部","id":"c49d2920-60d4-4ae2-9176-243f06d88ace","lat":26.86404,"lng":104.294459,"name":"贵州省威宁自治县农牧局干部"},{"address":"贵州省威宁自治县红十字会","id":"e0589b39-e561-47b3-a1e5-d47ced3c06d5","lat":26.858997,"lng":104.298477,"name":"贵州省威宁自治县红十字会"},{"address":"市监察局","id":"f6d612e1-de11-4a3a-bca9-3aa0fb82a28c","lat":27.155739,"lng":105.609011,"name":"市监察局"},{"address":"贵州省黔西县委","id":"5331fe02-a4f0-4527-848a-dc3eced84462","lat":27.014407,"lng":106.038873,"name":"贵州省黔西县委"},{"address":"贵州省毕节金海湖新区（贵州毕节经济开发区）梨树镇","id":"d05c2fb5-2cba-4082-a2f0-173c37b99751","lat":27.234485,"lng":105.437852,"name":"贵州省毕节金海湖新区（贵州毕节经济开发区）梨树镇"},{"address":"贵州省金沙县安底镇政府","id":"bfe3f09e-7875-441c-9961-f2f86f1b5a01","lat":27.402098,"lng":106.44041,"name":"贵州省金沙县安底镇政府"},{"address":"贵州省金沙县安底镇党委","id":"5efda3f4-996d-4fea-a65f-9f903d49ed99","lat":27.402119983757817,"lng":106.4403653707117,"name":"贵州省金沙县安底镇党委"},{"address":"贵州省纳雍县乐治镇党委","id":"07545e43-16a9-4b6f-b0c4-c2e78e0e4a28","lat":26.838924739361975,"lng":105.47866913612881,"name":"贵州省纳雍县乐治镇党委"},{"address":"贵州省毕节市工商联(毕节市商会)","id":"991a1621-178f-4a9a-86aa-6d504d2b669e","lat":27.104457,"lng":104.702636,"name":"贵州省毕节市工商联(毕节市商会)"},{"address":"贵州省毕节市社会科学联合会","id":"491ee3a5-cbd6-447b-90e6-a845a90d0445","lat":27.289507,"lng":105.298389,"name":"贵州省毕节市社会科学联合会"},{"address":"贵州省纳雍县水东乡党委","id":"03fe39e2-b37b-4ff4-8746-1c42e485de53","lat":26.718382,"lng":105.567425,"name":"贵州省纳雍县水东乡党委"},{"address":"贵州省威宁自治县中水镇人大主席团","id":"d1ce02ca-2cec-42a0-8a15-083e89595967","lat":27.081756,"lng":104.128957,"name":"贵州省威宁自治县中水镇人大主席团"},{"address":"贵州省金沙县纪律检查委员会第三纪律检查工作委员会","id":"ef5f5298-723a-4080-8fed-0c3de8492578","lat":27.471542677861745,"lng":106.2268521592366,"name":"贵州省金沙县纪律检查委员会第三纪律检查工作委员会"},{"address":"中国国际贸易促进会毕节支会（中国国际商会）","id":"83df6b0b-2f76-4b28-b5e9-d57834f12750","lat":25.327457045423724,"lng":118.30563728855807,"name":"中国国际贸易促进会毕节支会（中国国际商会）"},{"address":"贵州省大方县安乐乡","id":"86632121-f3e9-4930-980f-82c08b0f0073","lat":27.245783,"lng":105.665632,"name":"贵州省大方县安乐乡"},{"address":"贵州省威宁自治县五里岗街道","id":"695ec6f6-f22e-40fb-9496-79fdabe5f74c","lat":26.922967,"lng":104.259148,"name":"贵州省威宁自治县五里岗街道"},{"address":"贵州省百里杜鹃管理区百纳乡党委","id":"e66528f7-d09c-4fdc-a236-e18add29cb1e","lat":25.698024856615813,"lng":100.16742694064195,"name":"贵州省百里杜鹃管理区百纳乡党委"},{"address":"贵州省大方县顺德街道","id":"67682976-19a3-482f-8296-45d1fa2404f0","lat":27.165719,"lng":105.611427,"name":"贵州省大方县顺德街道"},{"address":"毕节市人大常委会贵州百里杜鹃管理区工作委员会","id":"9b090b5b-1ebf-4456-98eb-3b5ff14c4f8a","lat":26.754645,"lng":106.085068,"name":"毕节市人大常委会贵州百里杜鹃管理区工作委员会"},{"address":"贵州省毕节市七星关区大屯彝族乡","id":"a83463ce-a982-4a5a-a54f-5b0287fdc75e","lat":27.666799,"lng":105.75923,"name":"贵州省毕节市七星关区大屯彝族乡"},{"address":"贵州省威宁自治县羊街镇人民镇府","id":"e913698c-46a6-4e64-bb42-f7bbcb6021e6","lat":26.74320692194095,"lng":104.73882507767756,"name":"贵州省威宁自治县羊街镇人民镇府"},{"address":"贵州省织金县文腾街道办事处","id":"81eefb91-ccdc-41c1-88ce-c143badd9b16","lat":26.681606,"lng":105.773619,"name":"贵州省织金县文腾街道办事处"},{"address":"贵州省赫章县妈姑镇","id":"82e5c40b-1fcf-4da8-954e-18c641f69e68","lat":26.979651,"lng":104.562562,"name":"贵州省赫章县妈姑镇"},{"address":"贵州省黔西县花溪乡","id":"cfb63eea-71c2-4815-a4bc-acba5789f2be","lat":27.224029,"lng":106.323042,"name":"贵州省黔西县花溪乡"},{"address":"贵州省毕节市广播电视台","id":"7139089f-5cae-454f-95cc-5af655d7d814","lat":27.292174,"lng":105.287294,"name":"贵州省毕节市广播电视台"},{"address":"贵州省纳雍县曙光镇人民政府","id":"c890bef6-c8a2-4fd3-863d-321cdeb13ac6","lat":26.784054,"lng":105.38944,"name":"贵州省纳雍县曙光镇人民政府"},{"address":"贵州省赫章县人民政府","id":"516b95ed-7ab1-4469-9869-87fb06255721","lat":27.129031,"lng":104.73343,"name":"贵州省赫章县人民政府"},{"address":"贵州省黔西县总工会","id":"189c702e-d86c-4e0e-b1a4-5d1466bac55a","lat":27.034002,"lng":106.041424,"name":"贵州省黔西县总工会"},{"address":"贵州百里杜鹃管理区戛木管理区","id":"69c216e2-2a78-450a-84a0-869000eca553","lat":27.228697,"lng":105.846785,"name":"贵州百里杜鹃管理区戛木管理区"},{"address":"贵州省纳雍县寨乐乡党委","id":"4b01bc20-b8df-4373-9ba5-0ce643cc23a6","lat":26.842246,"lng":105.368659,"name":"贵州省纳雍县寨乐乡党委"},{"address":"贵州省黔西县政协","id":"6c82d9b6-322e-427a-9f79-ccba02925c36","lat":27.014407,"lng":106.038873,"name":"贵州省黔西县政协"},{"address":"贵州省大方县政协","id":"5ab45de6-c8f5-47e2-a67d-fe5a3ff7212c","lat":27.147134,"lng":105.61809,"name":"贵州省大方县政协"},{"address":"贵州省金沙县新化苗族彝族满族乡乡人民政府","id":"d3e6b5d6-d9bb-4cb0-a24a-01bef995d1b8","lat":27.40438,"lng":106.12176,"name":"贵州省金沙县新化苗族彝族满族乡乡人民政府"},{"address":"贵州省金沙县清池镇人大主席团","id":"408980b8-94de-48c7-adc3-1e993f5e1369","lat":27.705454,"lng":105.961792,"name":"贵州省金沙县清池镇人大主席团"},{"address":"贵州省威宁自治县龙街镇","id":"615187a9-3b9b-4a54-915e-7155cb8dd891","lat":27.151787,"lng":104.025061,"name":"贵州省威宁自治县龙街镇"},{"address":"贵州省纳雍县文昌街道办事处党工委","id":"4d73263d-8b3d-4755-83d8-e14702ff6089","lat":26.795102083008498,"lng":105.26868668571373,"name":"贵州省纳雍县文昌街道办事处党工委"},{"address":"贵州省织金县以那镇党委","id":"58a43724-7d59-4511-8e75-8555446ba969","lat":26.821158651646773,"lng":105.70391546979823,"name":"贵州省织金县以那镇党委"},{"address":"贵州省黔西县五里布依族苗族乡党委","id":"b84789d3-d69e-469d-b40d-b9c62dd795d9","lat":26.891218864241754,"lng":105.93772660751917,"name":"贵州省黔西县五里布依族苗族乡党委"},{"address":"贵州省纳雍县雍熙街道办事处","id":"7b9c65be-d62c-4e4a-b082-b86afb38b60e","lat":26.770191,"lng":105.384283,"name":"贵州省纳雍县雍熙街道办事处"},{"address":"贵州省黔西县杜鹃街道党工委","id":"c7346b37-caa5-45dd-8cbe-f200a15b19b3","lat":27.032341289716356,"lng":106.03414390548444,"name":"贵州省黔西县杜鹃街道党工委"},{"address":"贵州省毕节市大方县核桃乡","id":"fa108803-08ae-40b7-8908-79b62af2a667","lat":27.304488,"lng":105.630187,"name":"贵州省毕节市大方县核桃乡"},{"address":"贵州省毕节市鸭池镇","id":"114ee749-eba3-4ccf-ab74-601aef237430","lat":27.274659,"lng":105.363888,"name":"贵州省毕节市鸭池镇"},{"address":"贵州省黔西县甘棠镇","id":"668ca22a-8d4d-4b00-bb2d-2fc530c8d199","lat":27.118791,"lng":106.123622,"name":"贵州省黔西县甘棠镇"},{"address":"贵州省金沙县桂花乡党委","id":"218df6d0-f789-4f19-95d7-7741270a27ff","lat":27.56482658807329,"lng":106.09511880570096,"name":"贵州省金沙县桂花乡党委"},{"address":"贵州省黔西县文峰街道办事处","id":"83824628-bcde-4e59-92d0-0abf158abb97","lat":27.027627,"lng":106.04643,"name":"贵州省黔西县文峰街道办事处"},{"address":"贵州省金沙县人大常委会","id":"7c4dcde7-e7b2-4475-913d-001f087d8906","lat":27.465364,"lng":106.226675,"name":"贵州省金沙县人大常委会"},{"address":"贵州省毕节市七星关区大屯彝族乡人民政府","id":"a63ad307-b2d5-4ae6-96fd-eecf39fdf7f6","lat":27.665901,"lng":105.752764,"name":"贵州省毕节市七星关区大屯彝族乡人民政府"},{"address":"贵州百里杜鹃管理区大水彝族苗族布依族乡","id":"2aadd749-9277-4d20-8273-2f86f56e5db0","lat":27.266462,"lng":105.993584,"name":"贵州百里杜鹃管理区大水彝族苗族布依族乡"},{"address":"贵州省黔西县林泉镇党委","id":"abd9c85a-7931-4552-ac1f-39afed603ca8","lat":27.045438,"lng":105.870121,"name":"贵州省黔西县林泉镇党委"},{"address":"贵州纳雍县居仁街道办事处","id":"1a9d7543-384b-41fe-80ed-8ccbbaa206ee","lat":26.776902,"lng":105.441498,"name":"贵州纳雍县居仁街道办事处"},{"address":"贵州省毕节市织金县委","id":"08d12043-5264-421d-ab4f-064b79189522","lat":26.672423,"lng":105.779063,"name":"贵州省毕节市织金县委"},{"address":"贵州省织金县熊家场镇","id":"3dda440d-a5f1-49c7-907d-7c1999e9aee2","lat":26.481123,"lng":105.622151,"name":"贵州省织金县熊家场镇"},{"address":"中共大方县达溪镇委员会","id":"0aa59888-04b9-4fe8-95d5-2fb2f9a4d296","lat":27.405862,"lng":105.683654,"name":"中共大方县达溪镇委员会"},{"address":"贵州省纳雍县董地苗族彝族乡","id":"96958ca6-44f3-4b3e-a1b0-b2ae33514cf5","lat":26.950561,"lng":105.249001,"name":"贵州省纳雍县董地苗族彝族乡"},{"address":"贵州省毕节市七星关区八寨镇","id":"c0c1f173-5715-4d8f-b143-4443bfa09560","lat":27.418584,"lng":105.38157,"name":"贵州省毕节市七星关区八寨镇"},{"address":"贵州纳雍县乐治镇政府","id":"66bd6a88-9d59-4579-a6dd-9da9710ed77a","lat":26.838818,"lng":105.478614,"name":"贵州纳雍县乐治镇政府"},{"address":"贵州省大方县果瓦乡","id":"0f76a044-0f51-4e41-a22f-f9293900f956","lat":27.559669,"lng":105.830371,"name":"贵州省大方县果瓦乡"},{"address":"贵州省金沙县石场乡人大","id":"239c95a7-5bae-4e60-bb42-33e80c1b0a3b","lat":27.600474968236632,"lng":106.01634891081245,"name":"贵州省金沙县石场乡人大"},{"address":"贵州省织金县官寨苗族乡人民政府","id":"f0c5c84d-8264-4eb6-9e20-0de98cacfcbb","lat":26.77328,"lng":105.895194,"name":"贵州省织金县官寨苗族乡人民政府"},{"address":"贵州省毕节市七星关区杨家湾镇人民政府","id":"d53b7cd3-8427-48ae-8d53-d235dc1ee222","lat":27.186586,"lng":104.982375,"name":"贵州省毕节市七星关区杨家湾镇人民政府"},{"address":"贵州省黔西县甘棠镇人民政府","id":"93f77f98-b19c-49a1-a62a-16d4e44bcb43","lat":27.061228,"lng":106.137527,"name":"贵州省黔西县甘棠镇人民政府"},{"address":"贵州省金沙县太平彝族苗族乡人民政府","id":"1785b9b2-3e36-4be2-952d-8eaf4c3eac3c","lat":27.594846,"lng":105.923532,"name":"贵州省金沙县太平彝族苗族乡人民政府"},{"address":"贵州省金沙县化觉镇委员会","id":"d4a00e41-25d5-4b02-a7e5-a0e0ee77a4f5","lat":27.198848,"lng":106.424405,"name":"贵州省金沙县化觉镇委员会"},{"address":"贵州省纳雍县姑开苗族彝族乡党委","id":"174d6590-4ace-44d0-998b-9f30a895c5cd","lat":27.00712681766339,"lng":105.10435849372551,"name":"贵州省纳雍县姑开苗族彝族乡党委"},{"address":"贵州省大方县兴隆乡","id":"b0285e40-4f15-4afe-856a-529380ba18d7","lat":27.047172,"lng":104.309116,"name":"贵州省大方县兴隆乡"},{"address":"贵州省大方县长石镇","id":"149f3fa3-32bc-45de-a87e-403aec672987","lat":27.555513,"lng":105.76355,"name":"贵州省大方县长石镇"},{"address":"贵州省毕节市杨七星关区杨家湾镇","id":"bbcbdcd1-9f1a-4472-bd96-f44714b04a8e","lat":27.175262,"lng":104.994834,"name":"贵州省毕节市杨七星关区杨家湾镇"},{"address":"贵州省金沙县统计局","id":"d6befad5-07af-4ae5-b807-d093db1bdf31","lat":27.46536,"lng":106.226713,"name":"贵州省金沙县统计局"},{"address":"贵州百里杜鹃风景名胜区党工委","id":"21ce8158-d4c1-451f-9ae8-a2ec928db2a1","lat":27.209884,"lng":105.931775,"name":"贵州百里杜鹃风景名胜区党工委"},{"address":"贵州省纳雍县司法局党组","id":"a9bfb413-0a00-4d36-8739-ffd46e2d2321","lat":26.783747,"lng":105.389507,"name":"贵州省纳雍县司法局党组"},{"address":"贵州省毕节市威宁彝族回族苗族自治县政协","id":"041b345a-5a13-439d-a4f6-60ebde2f67dc","lat":26.862793,"lng":104.285167,"name":"贵州省毕节市威宁彝族回族苗族自治县政协"},{"address":"州省大方县小屯乡人民政府","id":"df09c84a-cefa-487d-a6a4-392f3dc387d9","lat":27.07759541738949,"lng":105.57470149850523,"name":"州省大方县小屯乡人民政府"},{"address":"贵州省毕节市大方县理化乡","id":"cc61d0e3-3bc9-4d3a-aa20-52883329ab22","lat":27.042576,"lng":105.676219,"name":"贵州省毕节市大方县理化乡"},{"address":"贵州省纳雍县居仁街道办事处党工委","id":"baf364fb-5574-4fda-ad3f-7771bff9a5dc","lat":26.776902,"lng":105.441498,"name":"贵州省纳雍县居仁街道办事处党工委"},{"address":"贵州省纳雍县寨乐党委","id":"6d604165-91e4-429f-ae96-589fa7973c16","lat":26.88136097925506,"lng":105.30808298594303,"name":"贵州省纳雍县寨乐党委"},{"address":"贵州省毕节金海湖现文阁乡党委","id":"ee994afc-8c36-4246-b11b-d078430b4a66","lat":40.038681701253104,"lng":116.43954432984577,"name":"贵州省毕节金海湖现文阁乡党委"},{"address":"贵州省毕节市共青团大方县委","id":"90988e27-cd2b-4894-b223-225dc1444191","lat":27.253059626031487,"lng":105.73720221998492,"name":"贵州省毕节市共青团大方县委"},{"address":"贵州省大方县监察局","id":"6cc73606-7e82-4b21-a8e2-1285ef4f00cd","lat":27.155739,"lng":105.609011,"name":"贵州省大方县监察局"},{"address":"贵州省黔西县金兰镇人民政府","id":"f513139b-6b56-478c-bd7c-acfaa173eba7","lat":26.844134,"lng":106.022943,"name":"贵州省黔西县金兰镇人民政府"},{"address":"贵州省金沙县沙土三化同步统筹发展改革试验区文化教育办公室","id":"a9cb23ae-6f06-4ec5-8473-d3137c5c1269","lat":27.304165,"lng":105.311621,"name":"贵州省金沙县沙土三化同步统筹发展改革试验区文化教育办公室"},{"address":"贵州省赫章县统战部","id":"bf3c0de7-d979-49ca-824d-1215fca8bc19","lat":27.15332246260986,"lng":104.59803187829694,"name":"贵州省赫章县统战部"},{"address":"贵州省纳雍县纪委第三纪工委","id":"21bdf337-1ba9-44c5-bb3d-15504a1e4d7c","lat":26.795102083008498,"lng":105.26868668571373,"name":"贵州省纳雍县纪委第三纪工委"},{"address":"贵州省织金县交通运输局党组成员","id":"0619f512-d8ce-4e1b-84b7-ddc764b14aee","lat":26.615333373403335,"lng":105.73204873020813,"name":"贵州省织金县交通运输局党组成员"},{"address":"贵州省黔西县莲城办事处","id":"551f9af4-d774-41ea-a987-ff74269a6036","lat":27.012184,"lng":106.048946,"name":"贵州省黔西县莲城办事处"},{"address":"贵州省毕节金海湖新区（贵州毕节经济开发区）文阁乡人民政府","id":"f6829823-eef0-43d5-b061-d03f08ed4e46","lat":27.234485,"lng":105.437852,"name":"贵州省毕节金海湖新区（贵州毕节经济开发区）文阁乡人民政府"},{"address":"贵州省金沙县太平彝族苗族乡人大主席团","id":"c0c21bf2-c04a-4ec3-8c66-b75bcd939506","lat":27.705454,"lng":105.961792,"name":"贵州省金沙县太平彝族苗族乡人大主席团"},{"address":"贵州省大方县猫场镇武装部","id":"2b099314-71df-4145-9e25-312a1b116feb","lat":26.965433,"lng":105.359658,"name":"贵州省大方县猫场镇武装部"},{"address":"贵州省金沙县新化乡计生协会","id":"640876e2-ce6b-46ee-a33a-15ba93488255","lat":27.401432,"lng":106.054272,"name":"贵州省金沙县新化乡计生协会"},{"address":"贵州省毕节市三板桥街道","id":"05f17be7-ccf3-4abb-a937-4f27c82a0c4f","lat":27.299742,"lng":105.271506,"name":"贵州省毕节市三板桥街道"},{"address":"贵州省金沙县住建局党委","id":"8659c822-b378-42c0-bd8e-11c61f35089e","lat":27.46536,"lng":106.226713,"name":"贵州省金沙县住建局党委"},{"address":"贵州省赫章县河镇彝族苗族乡","id":"b655780c-50d9-43e8-ab60-51b54c7afe21","lat":27.33583,"lng":104.34609,"name":"贵州省赫章县河镇彝族苗族乡"},{"address":"贵州百里杜鹃管理区普度彝族苗族白族乡人民武装部","id":"ce4dab3b-53af-4175-a546-df9784c58d1d","lat":33.07172528052777,"lng":107.03738730964145,"name":"贵州百里杜鹃管理区普度彝族苗族白族乡人民武装部"},{"address":"贵州省毕节市人大常委会","id":"4670bbba-7330-429b-8dbb-bb51bdc4cebd","lat":27.290325,"lng":105.297377,"name":"贵州省毕节市人大常委会"},{"address":"贵州毕节金海湖新区（贵州毕节经济开发区）双山镇党委","id":"56e9c1d1-2561-47ed-a635-276a1bfa9d92","lat":27.234485,"lng":105.437852,"name":"贵州毕节金海湖新区（贵州毕节经济开发区）双山镇党委"},{"address":"贵州省毕节市金海湖新区（贵州毕节经济开发区）双山镇","id":"923e0870-67cc-49e9-ab7b-c7de89682ebb","lat":27.234485,"lng":105.437852,"name":"贵州省毕节市金海湖新区（贵州毕节经济开发区）双山镇"},{"address":"贵州毕节金海湖新区（贵州毕节经济开发区）双山镇政法委","id":"7e3e5e8a-3e4f-4679-ae7d-42401022f3af","lat":27.234485,"lng":105.437852,"name":"贵州毕节金海湖新区（贵州毕节经济开发区）双山镇政法委"},{"address":"贵州省毕节市司法局","id":"2d5ba8b5-3a75-4f3c-a4cd-62f45ba48a43","lat":27.305668,"lng":105.31087,"name":"贵州省毕节市司法局"},{"address":"贵州省大方县牛场乡","id":"2bb347f4-440c-41e4-ac40-935132a2987b","lat":26.897914,"lng":105.597735,"name":"贵州省大方县牛场乡"},{"address":"贵州省毕节市曙光镇党委","id":"5c73915c-923e-4b00-b9b6-fe1e5f4ba244","lat":41.23678755698513,"lng":123.1981563071459,"name":"贵州省毕节市曙光镇党委"},{"address":"贵州省织金县纪律检查委员会","id":"c55dae94-4568-493e-b64f-fde65e3c993f","lat":26.672759,"lng":105.779594,"name":"贵州省织金县纪律检查委员会"},{"address":"贵州省黔西县文峰街道","id":"00a23e49-34ec-4ae2-af16-0ff0eadb3a05","lat":27.030685,"lng":106.047768,"name":"贵州省黔西县文峰街道"},{"address":"贵州省大方县顺德街道办事处","id":"5b6c31d5-6bc4-4e7a-b36d-de1d03e82029","lat":27.149723,"lng":105.614924,"name":"贵州省大方县顺德街道办事处"},{"address":"贵州省毕节市金海湖新区（贵州毕节经济开发区）青龙街道办事处","id":"3210b3ea-d602-40a1-abd0-ca8cdac4fd32","lat":27.234485,"lng":105.437852,"name":"贵州省毕节市金海湖新区（贵州毕节经济开发区）青龙街道办事处"},{"address":"贵州百里杜鹃管理区党工委","id":"b5402b99-50df-4dde-95d0-27d200b814ab","lat":27.228697,"lng":105.846785,"name":"贵州百里杜鹃管理区党工委"},{"address":"贵州省金沙县鼓场街道党工委","id":"55dc2b99-5b64-4136-8dce-5fec47e8b0fd","lat":27.471542677861745,"lng":106.2268521592366,"name":"贵州省金沙县鼓场街道党工委"},{"address":"贵州省毕节市委讲师团","id":"8cbdbef8-917a-4fe5-8066-96d9359eddce","lat":0.0,"lng":0.0,"name":"贵州省毕节市委讲师团"},{"address":"贵州省赫章县雉街乡","id":"c63700c6-5e8d-461e-9b9f-558c2acc7919","lat":26.878906,"lng":104.769943,"name":"贵州省赫章县雉街乡"},{"address":"贵州省毕节市赫章县朱明乡","id":"efd33e19-de0c-4a33-bda8-2044263ef3a8","lat":27.223502,"lng":104.549744,"name":"贵州省毕节市赫章县朱明乡"},{"address":"贵州省毕节市文体广电新闻出版局（市版权局）","id":"28d41208-f30a-4a1e-8b8e-1c71f3956845","lat":27.720657283070235,"lng":106.92793443016548,"name":"贵州省毕节市文体广电新闻出版局（市版权局）"},{"address":"贵州省大方县猫场镇","id":"7333e2cb-356d-4b0d-89be-49858e4b0923","lat":26.988285,"lng":105.357812,"name":"贵州省大方县猫场镇"},{"address":"贵州省毕节市纪委","id":"d3ee3620-a094-409c-ac10-dc922de0c093","lat":27.30583,"lng":105.311777,"name":"贵州省毕节市纪委"},{"address":"贵州省赫章县纪委","id":"089d887b-1aa1-430a-afbc-ccaff7be43e9","lat":27.146388,"lng":105.617589,"name":"贵州省赫章县纪委"},{"address":"贵贵州省赫章县委","id":"34972dfd-8ae0-4cad-93fa-0ba372e910fc","lat":27.128448695723936,"lng":104.7327285782174,"name":"贵贵州省赫章县委"},{"address":"贵州省纳雍县工商业联合会","id":"33eedef2-ab09-46d7-9d86-e7b6d100f18a","lat":26.783482,"lng":105.390172,"name":"贵州省纳雍县工商业联合会"},{"address":"贵州省黔西县人大常委会","id":"3777fd5e-8906-4c95-8285-8988fa2ae67b","lat":27.013453,"lng":106.040092,"name":"贵州省黔西县人大常委会"},{"address":"贵州省纳雍县猪场苗族彝族乡","id":"1c8991ac-dd3b-410f-9f7b-97694fb067df","lat":26.808889,"lng":105.131367,"name":"贵州省纳雍县猪场苗族彝族乡"},{"address":"贵州省威宁自治县陕桥街道","id":"5d01b6b8-abf9-405a-a95b-d1ae1b6c49ce","lat":26.814038,"lng":104.339137,"name":"贵州省威宁自治县陕桥街道"},{"address":"贵州省黔西县雨朵镇党委","id":"adc4e65f-355f-44c4-a5fd-7c7b9cf9fe29","lat":26.90946249429228,"lng":106.04837182599451,"name":"贵州省黔西县雨朵镇党委"},{"address":"贵州省威宁彝族回族苗族自治县人民检察院","id":"4ac50abc-a488-471b-bfa8-874f2dff7444","lat":26.87588,"lng":104.261265,"name":"贵州省威宁彝族回族苗族自治县人民检察院"},{"address":"贵州省金沙县高坪镇统战","id":"6a5528bd-7d7e-4908-8912-597cc5115376","lat":27.471542677861745,"lng":106.2268521592366,"name":"贵州省金沙县高坪镇统战"},{"address":"贵州省毕节市大方县人民检察院","id":"14a6ccc8-fa64-4463-bd99-f23eeadd0c97","lat":27.306106,"lng":105.288508,"name":"贵州省毕节市大方县人民检察院"},{"address":"贵州省金沙县财政局","id":"8b68ee47-eafc-4544-8c88-804ccf6c52c7","lat":27.465361,"lng":106.226632,"name":"贵州省金沙县财政局"},{"address":"贵州省毕节市七星关区水箐镇","id":"b3d7fd7f-f655-44f1-8202-e658c9052b41","lat":27.362242,"lng":105.162512,"name":"贵州省毕节市七星关区水箐镇"},{"address":"致公党毕节市七星关区工委","id":"e9de323a-39d3-49b1-92a8-3e99ea71e257","lat":27.464053316004616,"lng":105.42355760083845,"name":"致公党毕节市七星关区工委"},{"address":"贵州省黔西县钟山镇","id":"bab037b3-c826-4d6b-8938-6d449ead2478","lat":26.987461,"lng":106.241676,"name":"贵州省黔西县钟山镇"},{"address":"贵州省金沙县安洛苗族彝族满族乡党委","id":"8596270d-b685-45dd-b91a-9a4731458b01","lat":27.344069254252563,"lng":106.09974940172194,"name":"贵州省金沙县安洛苗族彝族满族乡党委"},{"address":"贵州省金沙县后山镇党委","id":"cdf01fa6-01ca-4d50-9dc5-f878b3ea6010","lat":27.471542677861745,"lng":106.2268521592366,"name":"贵州省金沙县后山镇党委"},{"address":"贵州省金沙县安洛苗族彝族满族乡计划生育协会","id":"6708a556-4637-4f01-a1f9-f429a6ede8f5","lat":27.401432,"lng":106.054272,"name":"贵州省金沙县安洛苗族彝族满族乡计划生育协会"},{"address":"贵州省毕节市纳雍县文昌街道办事处党工委","id":"dcab641c-407d-4c20-99a9-45234070037a","lat":26.795102083008498,"lng":105.26868668571373,"name":"贵州省毕节市纳雍县文昌街道办事处党工委"},{"address":"贵州省金沙县木孔镇党委","id":"f531da11-b4ee-4c2f-9c00-04999749e7f8","lat":27.488041,"lng":106.553566,"name":"贵州省金沙县木孔镇党委"},{"address":"贵州省金沙县木孔镇人大主席团","id":"b40dad4f-e6d5-4a42-aa63-ae71a6f082f0","lat":27.471542677861745,"lng":106.2268521592366,"name":"贵州省金沙县木孔镇人大主席团"},{"address":"贵州省黔西县新仁苗族乡","id":"c19a1ef1-8587-442c-9a95-b46a46c39faf","lat":26.862163,"lng":106.105086,"name":"贵州省黔西县新仁苗族乡"},{"address":"贵州省赫章县水务局","id":"9d60b938-67d3-4d7c-81dc-444913c894dd","lat":27.124947,"lng":104.739496,"name":"贵州省赫章县水务局"},{"address":"贵州百里杜鹃管理区仁和彝族苗族乡","id":"7918b9e4-2f82-4135-a8f2-51b4c223acdf","lat":27.228697,"lng":105.846785,"name":"贵州百里杜鹃管理区仁和彝族苗族乡"},{"address":"贵州省金沙县平坝镇政法委","id":"8c63e1af-65c3-4efa-8a45-867f1fe75c2b","lat":27.510859,"lng":106.162285,"name":"贵州省金沙县平坝镇政法委"},{"address":"贵州省金沙县岚头镇计划生育协会","id":"b7509d2e-3eb3-4247-b5b7-8f03c73e47af","lat":27.407442,"lng":106.515382,"name":"贵州省金沙县岚头镇计划生育协会"},{"address":"贵州百里杜鹃风景名胜区人力资源和社会保障局","id":"1f318d19-0ea8-490a-acb5-753ffc1085ef","lat":22.814017431168928,"lng":108.36870072731736,"name":"贵州百里杜鹃风景名胜区人力资源和社会保障局"},{"address":"贵州省织金县文腾街道","id":"039ae601-03b8-41ac-a6fe-2fb9ff7c1586","lat":26.679962,"lng":105.780715,"name":"贵州省织金县文腾街道"},{"address":"贵州省黔西县铁石乡政法委","id":"020f7acc-a2a9-4cba-8639-905965e453ad","lat":26.929452944986306,"lng":106.28919393818444,"name":"贵州省黔西县铁石乡政法委"},{"address":"贵州省大方县马场镇","id":"204ec7c3-b5d6-40bb-942c-730561599680","lat":26.95254,"lng":105.495333,"name":"贵州省大方县马场镇"},{"address":"贵州省毕节市田坎乡","id":"8b00b98c-dd0f-415a-ab46-c69ba9358d33","lat":27.703748,"lng":105.856917,"name":"贵州省毕节市田坎乡"},{"address":"贵州省威宁自治县纪律检查委员会","id":"93dec630-9bf0-41e9-9729-5f9e21af1edd","lat":27.12853,"lng":104.732765,"name":"贵州省威宁自治县纪律检查委员会"},{"address":"贵州省纳雍县昆寨乡","id":"86ea1428-08f2-42f3-b33d-2026788d5213","lat":26.847866,"lng":105.129813,"name":"贵州省纳雍县昆寨乡"},{"address":"贵州省织金县官寨乡","id":"a9768efd-8921-4169-9c37-9b83ac2cb0a6","lat":26.774424,"lng":105.894257,"name":"贵州省织金县官寨乡"},{"address":"贵州省威宁自治县五里岗街道办事处","id":"f9b7888b-5461-4cc4-a27a-3c62c6560ec2","lat":26.922967,"lng":104.259148,"name":"贵州省威宁自治县五里岗街道办事处"},{"address":"贵州省毕节市七星关区市东街道办事处","id":"9a617fbd-8f7c-4a2f-b9bc-fbb68881200d","lat":27.305222,"lng":105.297021,"name":"贵州省毕节市七星关区市东街道办事处"},{"address":"贵州省织金县自强乡","id":"5f57f657-bc49-462a-b8ce-604cb88d1d35","lat":26.694872,"lng":106.116541,"name":"贵州省织金县自强乡"},{"address":"贵州省金沙县鼓场街道党委","id":"1329811b-1ae5-4193-92b5-e36f7ea87f2f","lat":27.471542677861745,"lng":106.2268521592366,"name":"贵州省金沙县鼓场街道党委"},{"address":"贵州省黔西县水库和生态移民局","id":"2e85e0bf-7133-4dd0-bfa3-f661446d832a","lat":27.086384569459483,"lng":106.1405027568135,"name":"贵州省黔西县水库和生态移民局"},{"address":"贵州省金沙县纪律检查委员会第四纪律检查工作委员会","id":"a3efe1d0-861c-4430-8b44-8df28f994fba","lat":27.470541,"lng":106.235473,"name":"贵州省金沙县纪律检查委员会第四纪律检查工作委员会"},{"address":"贵州省毕节市七星关区观音桥办事处","id":"592611ab-0c5a-4aee-a21f-68ca4a5389c0","lat":27.32704,"lng":105.308876,"name":"贵州省毕节市七星关区观音桥办事处"},{"address":"贵州省毕节市七星关区长春堡镇","id":"b9ae3e01-e9b7-4f5c-b359-2f4db56de1ab","lat":27.241208,"lng":105.195709,"name":"贵州省毕节市七星关区长春堡镇"},{"address":"贵州省毕节市大方县纪委","id":"802f30eb-86c1-414b-9599-c4897738cbd3","lat":27.146388,"lng":105.617589,"name":"贵州省毕节市大方县纪委"},{"address":"贵州省织金县人民法院","id":"dead93b1-6c8e-4c6f-8a00-09d72491e887","lat":26.678889,"lng":105.781766,"name":"贵州省织金县人民法院"},{"address":"贵州省毕节市七星关区城市综合执法大队机关党委","id":"592dfce2-b47b-4bc7-9df6-0ac74ed5dbaf","lat":27.464053316004616,"lng":105.42355760083845,"name":"贵州省毕节市七星关区城市综合执法大队机关党委"},{"address":"贵州省毕节市七星关区清水铺党委","id":"82a9e32d-79b5-4bbd-809b-02086f664adb","lat":27.464053316004616,"lng":105.42355760083845,"name":"贵州省毕节市七星关区清水铺党委"},{"address":"贵州省织金县少普镇","id":"42b48e1e-2625-4505-b862-513376774897","lat":26.529979,"lng":105.611026,"name":"贵州省织金县少普镇"},{"address":"贵州省织金县绮陌街道","id":"ddf7bd12-1dbd-4576-aef7-25cef6df5f4e","lat":26.730915,"lng":105.807909,"name":"贵州省织金县绮陌街道"},{"address":"贵州省金沙县煤炭管理局","id":"93b88c20-d728-468f-a0a3-c2719d966b08","lat":27.46536,"lng":106.226713,"name":"贵州省金沙县煤炭管理局"},{"address":"贵州省纳雍县羊场苗族彝族乡","id":"820e28ae-02dd-45b9-b422-c2bd372c3c5b","lat":27.031415,"lng":105.053493,"name":"贵州省纳雍县羊场苗族彝族乡"},{"address":"贵州省纳雍县姑开乡苗族彝族乡党委","id":"69e0279b-b35b-4d68-aede-a6fdcbcd6e09","lat":27.007127,"lng":105.104359,"name":"贵州省纳雍县姑开乡苗族彝族乡党委"},{"address":"贵州省纳雍县姑开乡人大主席团","id":"5fc14988-ae56-4411-b69e-1a3fa317cb81","lat":26.795102083008498,"lng":105.26868668571373,"name":"贵州省纳雍县姑开乡人大主席团"},{"address":"贵州省威自治县石门乡","id":"24fd33e2-ab44-4ee6-8d0c-66aa2e5ffde2","lat":27.36628,"lng":103.958941,"name":"贵州省威自治县石门乡"},{"address":"贵州省纳雍县昆寨苗族彝族白族乡人民政府","id":"01f6947d-0f63-4249-93c1-41f5814f4c19","lat":26.85004,"lng":105.127831,"name":"贵州省纳雍县昆寨苗族彝族白族乡人民政府"},{"address":"贵州省金沙县卫生和计划生育局党组","id":"76ec0d04-c638-4cc2-9cfd-95122a869ab5","lat":27.468235,"lng":106.232544,"name":"贵州省金沙县卫生和计划生育局党组"},{"address":"贵州省纳雍县董地苗族彝族乡党委委员","id":"51c0435e-11f8-4a61-9d23-7c534d2bb504","lat":26.950112192411286,"lng":105.24883598625574,"name":"贵州省纳雍县董地苗族彝族乡党委委员"},{"address":"贵州百里杜鹃金坡苗族彝族满族乡","id":"89e7a902-89e3-487e-b99c-d10a9a6590ae","lat":27.306164,"lng":105.316426,"name":"贵州百里杜鹃金坡苗族彝族满族乡"},{"address":"贵州省大方县星宿乡","id":"cc7c9201-7a26-4e7a-bbfd-22171b30f966","lat":27.358381,"lng":105.881182,"name":"贵州省大方县星宿乡"},{"address":"贵州省威宁自治县哲觉镇计划生育协会","id":"fae2dd33-edaa-4d5d-bb89-2e8496884671","lat":26.591182,"lng":103.966251,"name":"贵州省威宁自治县哲觉镇计划生育协会"},{"address":"贵州省毕节市七星关区野角乡","id":"76fef1a2-60c2-408d-8aef-327348efae08","lat":27.309557,"lng":105.068998,"name":"贵州省毕节市七星关区野角乡"},{"address":"贵州省纳雍县厍东关彝族白族苗族乡计生协会","id":"17e86523-3f2f-4848-8585-e9a452215186","lat":27.057007,"lng":105.232349,"name":"贵州省纳雍县厍东关彝族白族苗族乡计生协会"},{"address":"贵州省毕节金海湖新区（贵州毕节经济开发区）青龙街道","id":"adc835c0-7de6-43ab-9730-86c7e998193a","lat":27.234485,"lng":105.437852,"name":"贵州省毕节金海湖新区（贵州毕节经济开发区）青龙街道"},{"address":"贵州省毕节市大方县绿塘乡","id":"f7931967-0357-4cab-b241-e0f21dd20899","lat":27.064385,"lng":105.45917,"name":"贵州省毕节市大方县绿塘乡"},{"address":"贵州省毕节市纳雍县骔岭镇","id":"2d0d3719-57e6-4c4d-9a7b-37d11eed29f1","lat":26.714005,"lng":105.278316,"name":"贵州省毕节市纳雍县骔岭镇"},{"address":"民盟贵州省毕节市委","id":"f0865dc0-49cf-43c7-a37d-6c1877b12da4","lat":29.8676846833016,"lng":118.4210767329962,"name":"民盟贵州省毕节市委"},{"address":"兼任贵州省毕节市金海湖新区金海湖办事处纪委","id":"e389b855-576b-4c19-97f4-f505f1e6af24","lat":40.185158737486006,"lng":117.27299748200583,"name":"兼任贵州省毕节市金海湖新区金海湖办事处纪委"},{"address":"贵州省纳雍县猪场乡党委","id":"8eeb3595-404d-4a95-8f73-97dab6092577","lat":26.808889,"lng":105.131367,"name":"贵州省纳雍县猪场乡党委"},{"address":"贵州省毕节市七星关区妇联","id":"bb6934aa-e4de-436f-831a-78daba9f51a7","lat":27.203935,"lng":105.319593,"name":"贵州省毕节市七星关区妇联"},{"address":"贵州省金沙县县纪委","id":"ec6bd108-379a-4c56-afca-e169ffe5acc8","lat":27.470541,"lng":106.235473,"name":"贵州省金沙县县纪委"},{"address":"贵州省威宁自治县六桥街道党的工作委员会","id":"5cd5f560-15a2-429f-ba9d-fbc836d1bc46","lat":26.912946643101318,"lng":104.13788406340932,"name":"贵州省威宁自治县六桥街道党的工作委员会"},{"address":"贵州省毕节市七星关区清水铺镇党委","id":"0b7454a3-ab2f-4117-aea3-fb11054fc9af","lat":27.669307375499983,"lng":105.56174454105401,"name":"贵州省毕节市七星关区清水铺镇党委"},{"address":"贵州省金沙县太平彝族苗族乡计划生育协会","id":"cc6a7e88-a8ca-4fe4-a2e0-7a8436e3b8e7","lat":27.468533,"lng":106.232447,"name":"贵州省金沙县太平彝族苗族乡计划生育协会"},{"address":"贵州省金沙县工商业联合会（商会）党组","id":"7e593402-6c27-43ca-96dc-b1f3f8f13d08","lat":27.471542677861745,"lng":106.2268521592366,"name":"贵州省金沙县工商业联合会（商会）党组"},{"address":"贵州省毕节市七星关区田坝桥镇党委","id":"6f343780-0040-448d-9b3a-ebf1c8f9bf3b","lat":27.367749,"lng":105.330329,"name":"贵州省毕节市七星关区田坝桥镇党委"},{"address":"贵州省七星关区长春堡镇","id":"56d8d392-425a-454f-87f8-62396986250f","lat":27.241208,"lng":105.195709,"name":"贵州省七星关区长春堡镇"},{"address":"贵州省毕节市七星关区市东街道办","id":"96e93784-5f73-4663-9315-ae0561623ffa","lat":27.305222,"lng":105.297021,"name":"贵州省毕节市七星关区市东街道办"},{"address":"贵州省威宁自治县迤那镇","id":"a860c2b7-6942-4ae2-91d0-dd3a7448afa0","lat":27.082574,"lng":103.900668,"name":"贵州省威宁自治县迤那镇"},{"address":"贵州省织金县工商业联合会","id":"c5f8a34e-450f-4a78-b6f2-5597469e24a6","lat":26.783482,"lng":105.390172,"name":"贵州省织金县工商业联合会"},{"address":"贵州省威宁自治县观风海镇委员会","id":"07babb70-a3a6-4c07-b9af-87d5697c011a","lat":26.974055,"lng":104.014804,"name":"贵州省威宁自治县观风海镇委员会"},{"address":"贵州省黔西县公安局党委","id":"df68da48-aa03-4278-b76f-b1a0faabedfa","lat":26.999004,"lng":106.053167,"name":"贵州省黔西县公安局党委"},{"address":"贵州省纳雍县锅圈岩乡苗族彝族乡党委","id":"38da1d45-9780-415c-b29f-f43fe46bb729","lat":26.918431376453686,"lng":105.06264418170478,"name":"贵州省纳雍县锅圈岩乡苗族彝族乡党委"},{"address":"贵州毕节金海湖新区（贵州毕节经济开发区）双山镇","id":"786b7384-11cd-4b03-9e39-f427f715f33a","lat":27.234485,"lng":105.437852,"name":"贵州毕节金海湖新区（贵州毕节经济开发区）双山镇"},{"address":"贵州省素朴镇","id":"e0e9c417-9957-4fee-9b7e-6b45734fadc0","lat":26.996288,"lng":106.35406,"name":"贵州省素朴镇"},{"address":"黔西县中建苗族彝族乡","id":"a771930a-6bd5-4106-a4c1-2a2f0402d9f1","lat":27.281994,"lng":106.301875,"name":"黔西县中建苗族彝族乡"},{"address":"贵州省威宁自治县二塘镇人民政府","id":"44fa2943-1e24-4c55-98b9-5841d71edd3c","lat":26.759653,"lng":104.552098,"name":"贵州省威宁自治县二塘镇人民政府"},{"address":"贵州省威宁自治县么站镇","id":"94b9e5f7-2dc1-4afc-8dbf-2b12a54f9f2f","lat":26.756882,"lng":104.264887,"name":"贵州省威宁自治县么站镇"},{"address":"贵州省黔西县五里布依族苗族乡","id":"ddf11327-3e28-48c9-bf20-307ba7b51732","lat":26.89122,"lng":105.937728,"name":"贵州省黔西县五里布依族苗族乡"},{"address":"贵州省大方县绿塘乡","id":"6efe2217-1942-47ef-8d5b-99a32faf1ade","lat":27.064385,"lng":105.45917,"name":"贵州省大方县绿塘乡"},{"address":"贵州省纳雍县人民政府文昌街道办事处党工委","id":"7ece37bc-9b1a-47f3-9fe2-55832ba012ae","lat":26.78376681565296,"lng":105.38919970397558,"name":"贵州省纳雍县人民政府文昌街道办事处党工委"},{"address":"贵州省金沙县教育局党委","id":"c0f17d13-34fd-49cc-b2f4-b22028e3796f","lat":27.46557890478033,"lng":106.22753590178037,"name":"贵州省金沙县教育局党委"},{"address":"贵州省金沙县茶园镇政府","id":"78ca1f25-26dc-47a9-bbd5-65c4f2fbb6d8","lat":27.4778,"lng":106.440114,"name":"贵州省金沙县茶园镇政府"},{"address":"贵州省金沙县马路乡计划生育协会","id":"571e8cc4-f229-40c5-ba1b-61f30fb66e6f","lat":27.652797282777676,"lng":105.83406340932967,"name":"贵州省金沙县马路乡计划生育协会"},{"address":"贵州省赫章县双坪彝族苗族乡人民政府","id":"0378eaeb-d4b8-4617-81c8-bcdbbd5f6407","lat":27.071861,"lng":104.470583,"name":"贵州省赫章县双坪彝族苗族乡人民政府"},{"address":"贵州省金沙县农牧局","id":"f4c719bf-fcbf-4bff-b901-aa5f6addb899","lat":27.465266,"lng":106.227622,"name":"贵州省金沙县农牧局"},{"address":"贵州省金沙县后山镇纪委","id":"70394905-94f8-4d32-b92b-494749295236","lat":27.471542677861745,"lng":106.2268521592366,"name":"贵州省金沙县后山镇纪委"},{"address":"贵州省毕节市七星关区政协","id":"3e5a4404-fcb9-4ec9-8714-61e09f3c1afd","lat":27.304165,"lng":105.31162,"name":"贵州省毕节市七星关区政协"},{"address":"贵州省纳雍县供销合作联合社","id":"41e3d886-f6fa-499f-b92c-50817cb0f89d","lat":26.780738,"lng":105.386202,"name":"贵州省纳雍县供销合作联合社"},{"address":"贵州省威宁自治县委","id":"e5d8b959-a265-4509-a211-9f720f85bf63","lat":26.865328,"lng":104.286282,"name":"贵州省威宁自治县委"},{"address":"贵州省毕节市七星关区千溪乡党委","id":"07b728cf-d34e-4d0a-ac6a-a58f1ac9e806","lat":27.234491,"lng":105.275057,"name":"贵州省毕节市七星关区千溪乡党委"},{"address":"贵州省大方八堡乡","id":"041ce4d4-f022-4d97-8cfe-101f5b6819fc","lat":27.421278,"lng":105.589073,"name":"贵州省大方八堡乡"},{"address":"中共贵州省毕节市七星关区委员会","id":"1d7d5c48-914e-426f-a387-4c83a6fa4755","lat":27.304165,"lng":105.31162,"name":"中共贵州省毕节市七星关区委员会"},{"address":"贵州省威宁自治县海拉乡","id":"1efc981f-dace-473c-9e03-7a8f669c6614","lat":26.78363,"lng":103.766028,"name":"贵州省威宁自治县海拉乡"},{"address":"贵州省赫章县六曲河镇人民政府","id":"e8fa4b1e-48be-4966-87ba-a692429f1f82","lat":27.23535,"lng":104.725157,"name":"贵州省赫章县六曲河镇人民政府"},{"address":"贵州省毕节市工业和能源委会","id":"f58147ce-ba84-4aed-9848-b29c8b1b5f5b","lat":27.289508,"lng":105.298389,"name":"贵州省毕节市工业和能源委会"},{"address":"贵州省纳雍县厍东关彝族白族苗乡","id":"9e492c72-cf72-420b-973e-53b5da1f9f13","lat":27.074680765774364,"lng":105.24054738958912,"name":"贵州省纳雍县厍东关彝族白族苗乡"},{"address":"赫章县结构彝族苗族乡","id":"7f6c3f11-546f-4441-9780-de5545a242c8","lat":27.261711,"lng":104.476415,"name":"赫章县结构彝族苗族乡"},{"address":"贵州省毕节市织金县委政法委","id":"5cb318b1-2b81-4856-8fbf-15db29bbdacc","lat":27.289508,"lng":105.298389,"name":"贵州省毕节市织金县委政法委"},{"address":"贵州省毕节市大方县凤山乡人民政府","id":"7aee8d29-4ab4-4920-acc8-960ca57bd1dc","lat":27.221595,"lng":105.742459,"name":"贵州省毕节市大方县凤山乡人民政府"},{"address":"贵州省大方县审计局","id":"391c55ae-ab82-49fd-a521-b0da88dc2347","lat":27.146508,"lng":105.618641,"name":"贵州省大方县审计局"},{"address":"贵州省毕节市大方县凤山乡党委","id":"550ad76f-9105-4cef-98f1-55e45d27ef4b","lat":27.22212648835645,"lng":105.74176386566819,"name":"贵州省毕节市大方县凤山乡党委"},{"address":"贵州省金沙县后山镇人民政府","id":"ed572383-a48c-413d-a523-f957871728fb","lat":27.464878,"lng":106.22661,"name":"贵州省金沙县后山镇人民政府"},{"address":"贵州省毕节市金海湖新区竹园乡","id":"bfc1bb19-024d-42da-a301-20aef36d7901","lat":27.234485,"lng":105.437852,"name":"贵州省毕节市金海湖新区竹园乡"},{"address":"贵州省毕节市七星关区田坎乡","id":"093b70e1-bfb3-4a5d-aeb5-ed93508c0611","lat":27.703748,"lng":105.856917,"name":"贵州省毕节市七星关区田坎乡"},{"address":"贵州省纳雍县昆寨苗族彝族白族乡民生监督组","id":"b3b4cab2-41b8-4463-9faa-6254404b9f75","lat":26.850039773702793,"lng":105.12783135054099,"name":"贵州省纳雍县昆寨苗族彝族白族乡民生监督组"},{"address":"贵州省纳雍县猪场乡","id":"93f4a7f5-d36c-4008-8572-0feb35294703","lat":26.80489,"lng":105.126348,"name":"贵州省纳雍县猪场乡"},{"address":"贵州省织金县少普镇党委","id":"f9db6b17-2066-4ff7-b3ca-9acfc5d0d5e5","lat":26.615333373403335,"lng":105.73204873020813,"name":"贵州省织金县少普镇党委"},{"address":"贵州省金沙县西洛街道","id":"0a16ac3b-d655-4c14-a991-c6054ca3e1b5","lat":27.46451,"lng":106.161851,"name":"贵州省金沙县西洛街道"},{"address":"中共贵州省黔西县新仁乡党委","id":"7ae6d19b-f22e-4b76-8d8d-73222c26e120","lat":26.861973029387507,"lng":106.1049027899902,"name":"中共贵州省黔西县新仁乡党委"},{"address":"贵州省黔西县中坪镇人大","id":"5c802f21-e2dd-46c2-be77-30193c22fed2","lat":27.21144731780774,"lng":106.28522665095184,"name":"贵州省黔西县中坪镇人大"},{"address":"贵州省黔西县工能局","id":"28780377-a2ed-4966-92b5-d0213451ea60","lat":27.086384569459483,"lng":106.1405027568135,"name":"贵州省黔西县工能局"},{"address":"贵州省织金县安全生产监督管理局","id":"9a012cef-0ff6-4c5f-9e3a-f1c1988d4ff0","lat":26.780603,"lng":105.390203,"name":"贵州省织金县安全生产监督管理局"},{"address":"贵州省金沙县茶园镇政法委","id":"cb3e2129-973c-484c-9006-1f4f87bf4433","lat":27.471542677861745,"lng":106.2268521592366,"name":"贵州省金沙县茶园镇政法委"},{"address":"贵州省毕节市织金县三甲街道党工委","id":"c5ca143c-f012-4738-b83c-e1f9bc54ac59","lat":26.615333373403335,"lng":105.73204873020813,"name":"贵州省毕节市织金县三甲街道党工委"},{"address":"贵州省纳雍县玉龙坝镇人民政府","id":"2ddae549-88fe-4cbf-b1d3-33830af4ede0","lat":26.839143,"lng":105.536947,"name":"贵州省纳雍县玉龙坝镇人民政府"},{"address":"贵州省黔西县交通运输局党组","id":"7645c0b1-f8ed-4b64-9299-ee86d8ab88e7","lat":27.029968132403877,"lng":106.04366916610893,"name":"贵州省黔西县交通运输局党组"},{"address":"中共谷里镇委员会","id":"06815c42-80a1-47ad-bff8-2898e75a773b","lat":31.869013532013224,"lng":118.69684558323522,"name":"中共谷里镇委员会"},{"address":"毕节金海湖新区青龙街道办事处","id":"818d0da6-c61a-4109-aeb2-d3afb0060b79","lat":31.823156801017042,"lng":120.02437855793958,"name":"毕节金海湖新区青龙街道办事处"},{"address":"贵州省毕节市七星关区水箐镇人民政府","id":"1b49fad7-1d0d-40db-aad5-23a7d73308d0","lat":27.35777,"lng":105.163833,"name":"贵州省毕节市七星关区水箐镇人民政府"},{"address":"贵州省金沙县安洛乡","id":"5b89314d-daba-4622-b3b9-96044b0d879c","lat":27.343289,"lng":106.100581,"name":"贵州省金沙县安洛乡"},{"address":"贵州省威宁自治县黑土河乡","id":"1ef583e8-b8fb-4108-9034-24eb4be8fbfa","lat":27.252384,"lng":103.918112,"name":"贵州省威宁自治县黑土河乡"},{"address":"中共毕节市七星关区委员会","id":"c5265f22-585d-4672-8f70-9d58f240c6b7","lat":27.304165,"lng":105.31162,"name":"中共毕节市七星关区委员会"},{"address":"贵州省纳雍县统计局","id":"745fd8f9-37b4-448d-b730-221fd02b200e","lat":26.780062,"lng":105.387828,"name":"贵州省纳雍县统计局"},{"address":"贵州省金沙县清池镇党委（保留副科长级）","id":"45ed8227-4efd-4945-911a-bc304b84daaf","lat":27.70528092647289,"lng":105.96199882239075,"name":"贵州省金沙县清池镇党委（保留副科长级）"},{"address":"贵州省赫章县妈姑矿区社区服务管理局","id":"ba82dd3f-5e7a-425c-b865-fdb2a81e9961","lat":26.97109248622741,"lng":104.56839832461803,"name":"贵州省赫章县妈姑矿区社区服务管理局"},{"address":"贵州省纳雍县厍东关乡人民政府","id":"3566ca73-d0ff-4115-8a70-d0211a382c28","lat":27.072082,"lng":105.237721,"name":"贵州省纳雍县厍东关乡人民政府"},{"address":"贵州省大方县鼎新乡党委","id":"f94471d1-e303-4fed-90ee-14f19c2a138a","lat":27.009029926932186,"lng":105.3924580377203,"name":"贵州省大方县鼎新乡党委"},{"address":"贵州省毕节市金沙县新化苗族彝族满族乡党委","id":"4e0c9ac2-7914-4665-b72d-de2bbf9151ae","lat":27.430974,"lng":106.163865,"name":"贵州省毕节市金沙县新化苗族彝族满族乡党委"},{"address":"贵州省威宁自治县纪律检查委员会第四纪律检查工作委员会","id":"42e523a1-7fb5-4c9a-94a3-2e1e01223f95","lat":26.912946643101318,"lng":104.13788406340932,"name":"贵州省威宁自治县纪律检查委员会第四纪律检查工作委员会"},{"address":"贵州省毕节市七星关区民生项目监督清水铺镇特派组","id":"4f694aee-dab9-4274-9b85-01bbeac01207","lat":27.669307375499983,"lng":105.56174454105401,"name":"贵州省毕节市七星关区民生项目监督清水铺镇特派组"},{"address":"贵州省织金县中寨乡","id":"4bb9cade-4f03-4d2b-9085-75ff440d3a93","lat":26.677336,"lng":105.662237,"name":"贵州省织金县中寨乡"},{"address":"织金县八步街道","id":"105771e8-9bac-4fb2-a9e9-30decf43f582","lat":26.832331,"lng":105.810071,"name":"织金县八步街道"},{"address":"贵州省金沙县委宣传部","id":"2d3e5109-2f3d-4aa8-a9cd-df0b9e723c6d","lat":27.512082,"lng":106.273261,"name":"贵州省金沙县委宣传部"},{"address":"贵州省织金县人民政府","id":"1dce0f25-1d71-4647-a2af-98b4847b986f","lat":26.669298,"lng":105.77705,"name":"贵州省织金县人民政府"},{"address":"贵州省黔西县定新乡党委","id":"349412b4-6aef-4209-afe1-d276cc8ccd01","lat":27.176152144675275,"lng":106.1431444640123,"name":"贵州省黔西县定新乡党委"},{"address":"贵州省毕节市杨家湾镇","id":"a32752bb-7316-43ed-80f6-51220e1e7512","lat":27.180026,"lng":104.979822,"name":"贵州省毕节市杨家湾镇"},{"address":"贵州毕节市七星关区市东街道办事处","id":"817a2f25-1255-4d14-9d38-f6e515b89666","lat":27.305222,"lng":105.297021,"name":"贵州毕节市七星关区市东街道办事处"},{"address":"贵州省金沙县禹谟政法委","id":"f5636854-48d1-4810-b964-cba74e8623ca","lat":27.380182,"lng":106.340211,"name":"贵州省金沙县禹谟政法委"},{"address":"贵州省赫章县安全生产监督管理局","id":"a6b3734d-b896-4a71-918c-dca3676d6f0b","lat":26.866894,"lng":104.289128,"name":"贵州省赫章县安全生产监督管理局"},{"address":"贵州省赫章县双坪乡人民政府","id":"b290f8a1-9368-4b49-a4fe-138a2f09c17f","lat":27.071861,"lng":104.470583,"name":"贵州省赫章县双坪乡人民政府"},{"address":"贵州省金沙县金沙县沙土三化同步统筹发展改革试验区管理委员会党工委","id":"36111559-dd94-447e-97db-dca94ab5b624","lat":27.637300373458622,"lng":106.05984489054036,"name":"贵州省金沙县金沙县沙土三化同步统筹发展改革试验区管理委员会党工委"},{"address":"贵州省毕节市七星关区洪山街道办事处（社区服务中心）","id":"1845d01d-53a7-429f-b485-33027f577905","lat":27.299554,"lng":105.300357,"name":"贵州省毕节市七星关区洪山街道办事处（社区服务中心）"},{"address":"大方县红旗街道党工委","id":"ed2232a8-cf64-40a0-8f3e-3c028fc74f39","lat":27.253059626031487,"lng":105.73720221998492,"name":"大方县红旗街道党工委"},{"address":"贵州省毕节市林口镇","id":"73f64330-1854-4bff-936a-cad9b4978d38","lat":27.667732,"lng":105.367699,"name":"贵州省毕节市林口镇"},{"address":"贵州省黔西县新仁苗族乡人民政府","id":"86300ced-c5b4-4746-8cb4-bf3df6fb542f","lat":26.862163,"lng":106.105086,"name":"贵州省黔西县新仁苗族乡人民政府"},{"address":"贵州省金沙县柳塘镇党委","id":"a1d37ccb-53d0-484d-b2a7-a78ad18c515e","lat":27.420465,"lng":106.245682,"name":"贵州省金沙县柳塘镇党委"},{"address":"贵州省纳雍县人民政府","id":"71668aa1-a6ca-4585-affe-0d0cc07cf695","lat":26.784054,"lng":105.38944,"name":"贵州省纳雍县人民政府"},{"address":"贵州省金沙县委","id":"385ffefc-094d-4872-b519-e48242fe280e","lat":27.512082,"lng":106.273261,"name":"贵州省金沙县委"},{"address":"贵州省织金县委","id":"30e16f51-e66f-4d71-835b-9f68219d637e","lat":26.672423,"lng":105.779063,"name":"贵州省织金县委"},{"address":"贵州省织金县白泥镇","id":"b263d25d-fea4-4fa9-b79c-8c57b27a81f9","lat":26.396621,"lng":105.545819,"name":"贵州省织金县白泥镇"},{"address":"贵州省毕节市七星关区林口镇","id":"283f8566-d92c-45f3-95d3-a2fba05183ef","lat":27.667732,"lng":105.367699,"name":"贵州省毕节市七星关区林口镇"},{"address":"贵州省金沙县交通局纪委","id":"0da7344d-b21e-4ad6-88e2-2428aa22cd00","lat":27.471542677861745,"lng":106.2268521592366,"name":"贵州省金沙县交通局纪委"},{"address":"贵州省威宁彝族回族苗族自治县人民政府","id":"4521e1f5-5eb4-4d53-b8a8-406f383a914b","lat":26.867741,"lng":104.288347,"name":"贵州省威宁彝族回族苗族自治县人民政府"},{"address":"贵州省纳雍县龙场镇党委","id":"8f01e366-ee21-403f-b123-cc7245bf3e54","lat":26.854902,"lng":105.258325,"name":"贵州省纳雍县龙场镇党委"},{"address":"贵州省毕节市七星关区清水铺镇武装部","id":"43e1c98e-1de5-4802-a040-e61797a6edcb","lat":27.669307375499983,"lng":105.56174454105401,"name":"贵州省毕节市七星关区清水铺镇武装部"},{"address":"贵州省织金县委员会","id":"60479e8a-334d-459f-9c5e-cf2944238214","lat":26.672759,"lng":105.779594,"name":"贵州省织金县委员会"},{"address":"贵州省纳雍县董地乡党委","id":"ec8dd5f3-5970-4202-90d3-a9d81533279d","lat":26.950643,"lng":105.248285,"name":"贵州省纳雍县董地乡党委"},{"address":"贵州省金沙县石场乡","id":"a188a723-ed9b-4adb-9363-759375af4886","lat":27.600794,"lng":106.016627,"name":"贵州省金沙县石场乡"},{"address":"贵州省黔西县交通运输局","id":"e02b3b65-7bbf-4e5a-b3d3-164ef61434be","lat":27.030012,"lng":106.043851,"name":"贵州省黔西县交通运输局"},{"address":"黔西县红林彝族苗族乡","id":"fd6d29d3-9302-40cb-9286-08be2dd63a48","lat":27.122742,"lng":105.879369,"name":"黔西县红林彝族苗族乡"},{"address":"贵州省大方县住房和城乡建设局","id":"84525466-af24-44b6-ac9d-0f6bc31563ec","lat":27.312654,"lng":105.293662,"name":"贵州省大方县住房和城乡建设局"},{"address":"贵州省毕节强制隔离戒毒所","id":"c7ecf84d-e953-4ab0-9d19-51f643e2dec2","lat":23.307739912174977,"lng":114.51784263036863,"name":"贵州省毕节强制隔离戒毒所"},{"address":"贵州百里杜鹃管理区","id":"9145f5f8-e442-47f0-8f77-efbd53d8eccc","lat":27.228697,"lng":105.846785,"name":"贵州百里杜鹃管理区"},{"address":"贵州省纳雍县人民法院","id":"f5760729-d9fd-4518-a3a1-afd7e265ae40","lat":26.779118,"lng":105.390425,"name":"贵州省纳雍县人民法院"},{"address":"贵州省威宁彝族回族苗族自治县人大常委会","id":"879d31bc-3cc3-4723-bf52-94840c1ef1df","lat":26.862512,"lng":104.28514,"name":"贵州省威宁彝族回族苗族自治县人大常委会"},{"address":"贵州省威宁自治县岔河镇","id":"35bea888-3b1b-4c09-ad24-22eed28357b0","lat":27.182228,"lng":105.384915,"name":"贵州省威宁自治县岔河镇"},{"address":"贵州省毕节市七星关区对坡镇","id":"ca84caff-a5fd-44c0-a362-2ebab2d7df0b","lat":27.4876,"lng":105.31805,"name":"贵州省毕节市七星关区对坡镇"},{"address":"贵州省金沙县石场乡党委","id":"731359c9-67cc-474f-8009-38f8bb7636b4","lat":27.600937082823716,"lng":106.01843962705568,"name":"贵州省金沙县石场乡党委"},{"address":"贵州省纳雍县文昌街道办事处","id":"629ac0bc-aa9d-4495-87d1-f240d54a8d65","lat":26.776184,"lng":105.390006,"name":"贵州省纳雍县文昌街道办事处"},{"address":"贵州省黔西县中坪镇党委","id":"d3c09d6c-f5e2-40fe-a28a-91a50576e917","lat":27.21144731780774,"lng":106.28522665095184,"name":"贵州省黔西县中坪镇党委"},{"address":"贵州省金沙县人民医院党支部","id":"8e5a6c8a-e422-4ab4-adde-e84d22581be6","lat":27.467044737093907,"lng":106.22504741855236,"name":"贵州省金沙县人民医院党支部"},{"address":"贵州省黔西县重新镇党委","id":"3f0f7c59-b499-4f75-9a4d-1c9fe814ac9d","lat":27.270527216726702,"lng":106.20700769761207,"name":"贵州省黔西县重新镇党委"},{"address":"贵州省大方县雨冲乡","id":"cebf9c80-a4f0-4f73-9acd-8c50bc15b106","lat":27.375078,"lng":105.998588,"name":"贵州省大方县雨冲乡"},{"address":"贵州省毕节市七星关区青场镇","id":"7143e1f4-26ba-401b-a076-a5bc73c6b05f","lat":27.353012,"lng":105.030563,"name":"贵州省毕节市七星关区青场镇"},{"address":"贵州省威宁自治县安全生产监督管理局","id":"34247a78-daab-4204-a9c0-f84d157dfe90","lat":26.866894,"lng":104.289128,"name":"贵州省威宁自治县安全生产监督管理局"},{"address":"贵州省纳雍县玉龙坝镇","id":"0a3b1005-3d83-4059-b359-0735fdadf5a4","lat":26.839143,"lng":105.536947,"name":"贵州省纳雍县玉龙坝镇"},{"address":"贵州省威宁自治县斗古镇","id":"e845677d-9db3-4f97-a645-faf4501d7e31","lat":26.992119,"lng":103.846648,"name":"贵州省威宁自治县斗古镇"},{"address":"贵州省威宁自治县黑石头镇","id":"2d67348d-bffc-4f09-962b-09e694a295ff","lat":26.748788,"lng":104.026137,"name":"贵州省威宁自治县黑石头镇"},{"address":"贵州省黔西县铁石乡党委","id":"da62e38a-2b0d-49d9-8c62-98fc6af4b579","lat":26.930166,"lng":106.290689,"name":"贵州省黔西县铁石乡党委"},{"address":"贵州省织金县猫场镇","id":"83351235-791b-4fb5-a5df-32d97fdbb7e4","lat":26.545892,"lng":106.045094,"name":"贵州省织金县猫场镇"},{"address":"贵州省纳雍县左鸠戛乡","id":"30498ac6-8459-41eb-9d11-c2c734c3e4a7","lat":26.831903,"lng":105.06115,"name":"贵州省纳雍县左鸠戛乡"},{"address":"贵州省毕节市七星关区八寨镇党委","id":"477f50c0-42cc-43ba-92b4-1c21262eff87","lat":27.41858406648065,"lng":105.38156975389174,"name":"贵州省毕节市七星关区八寨镇党委"},{"address":"贵州省织金县金凤街道办事处","id":"fb25af26-e334-4f1a-9197-d653d1271cee","lat":26.647911,"lng":105.682005,"name":"贵州省织金县金凤街道办事处"},{"address":"贵州省毕节金海湖新区（贵州毕节经济开发区）管委会","id":"ed929bb3-cebd-4bbe-9f3b-a374c7789f4e","lat":27.234485,"lng":105.437852,"name":"贵州省毕节金海湖新区（贵州毕节经济开发区）管委会"},{"address":"贵州省毕节市七星关区三板桥街道","id":"4a0f7bee-2e36-4bba-bb86-9e4a870eceea","lat":27.299742,"lng":105.271506,"name":"贵州省毕节市七星关区三板桥街道"},{"address":"贵州省织金县后寨乡","id":"f66792d3-9b7d-43a9-b96e-49fd4325b953","lat":26.750546,"lng":105.635914,"name":"贵州省织金县后寨乡"},{"address":"贵州省威宁自治县双龙镇","id":"e3cdcc78-9ee0-418f-a48e-527ffaeea2c2","lat":26.882881,"lng":104.145361,"name":"贵州省威宁自治县双龙镇"},{"address":"贵州省纳雍县居仁街道办事处","id":"9d61b73b-e207-42e6-a829-34f964409293","lat":26.776902,"lng":105.441498,"name":"贵州省纳雍县居仁街道办事处"},{"address":"贵州省威宁自治县云贵乡","id":"9bd23253-7ac5-493a-bd6e-c76226c8d7dd","lat":27.305814,"lng":104.10259,"name":"贵州省威宁自治县云贵乡"},{"address":"兼任毕节金海湖新区金海湖办事处党委","id":"98914c61-4eea-40a0-bee1-6539b708a332","lat":40.185158737486006,"lng":117.27299748200583,"name":"兼任毕节金海湖新区金海湖办事处党委"},{"address":"贵州省金沙县清池镇人民政府","id":"7b434a6b-b5b0-4902-a829-f324cda76dd8","lat":27.705454,"lng":105.961792,"name":"贵州省金沙县清池镇人民政府"},{"address":"贵州省毕节市七星关区层台镇","id":"d04e6578-a16c-446e-8628-01f87eed8e51","lat":27.484914,"lng":105.46364,"name":"贵州省毕节市七星关区层台镇"},{"address":"贵州省黔西县中建苗族彝族乡","id":"6f8f8002-b4e0-4a76-9df0-df55d35a7046","lat":27.281994,"lng":106.301875,"name":"贵州省黔西县中建苗族彝族乡"},{"address":"贵州省威宁自治县哈喇河镇人大主席团","id":"6acbe537-4650-46ad-951d-98097c6bb02a","lat":26.912946643101318,"lng":104.13788406340932,"name":"贵州省威宁自治县哈喇河镇人大主席团"},{"address":"贵州省威宁自治县新发乡","id":"2a742fbc-8950-4874-ab0f-2833e5d93b4f","lat":26.606047,"lng":104.626643,"name":"贵州省威宁自治县新发乡"},{"address":"官寨苗族乡","id":"9b927799-c978-4df3-9a43-5f244dba7286","lat":26.775447,"lng":105.890935,"name":"官寨苗族乡"},{"address":"贵州省大方县兴隆苗族乡","id":"ce155ec7-70eb-4708-b8e3-89aa14244cb4","lat":27.471826,"lng":105.65299,"name":"贵州省大方县兴隆苗族乡"},{"address":"贵州省织金县绮陌街道办事处","id":"e8619f24-6e7c-486d-b575-be0bdf2eb9a6","lat":26.690808,"lng":105.793578,"name":"贵州省织金县绮陌街道办事处"},{"address":"贵州毕节金海湖新区（贵州毕节经济开发区）小坝镇","id":"1ac73f3c-2c27-4387-9b5d-9fd60dad9db5","lat":27.331833,"lng":105.494567,"name":"贵州毕节金海湖新区（贵州毕节经济开发区）小坝镇"},{"address":"贵州省黔西县林泉镇","id":"1ee04585-612f-445f-bdd5-a773dc90a8f1","lat":27.045438,"lng":105.870121,"name":"贵州省黔西县林泉镇"},{"address":"贵州省金沙县高坪镇政府","id":"06bf2f1f-bb4f-42dd-bf40-c8dd5ff681fb","lat":27.251097,"lng":106.411865,"name":"贵州省金沙县高坪镇政府"},{"address":"贵州省纳雍县教育局","id":"fa504974-7422-421d-82c7-27d12289ddf2","lat":26.781729,"lng":105.389271,"name":"贵州省纳雍县教育局"},{"address":"贵州省纳雍县左鸠戛彝族苗族乡纪委","id":"02519261-c5c6-43b5-bec6-1a3a449ecdd3","lat":26.8329216777458,"lng":105.0612121928918,"name":"贵州省纳雍县左鸠戛彝族苗族乡纪委"},{"address":"贵州省大方县慕俄格古城街道","id":"be7934df-1299-4fbb-b0bb-bc7c0d264717","lat":27.147061,"lng":105.620959,"name":"贵州省大方县慕俄格古城街道"},{"address":"贵州省毕节市大方县人民检察院副检察","id":"b3f1a73e-a619-466d-b2ee-90816bfde664","lat":27.155788741186605,"lng":105.60907869097043,"name":"贵州省毕节市大方县人民检察院副检察"},{"address":"贵州省毕节市大方县理化乡政法委","id":"6c89e146-9a35-4629-bf1a-d43b1abe3fe5","lat":27.041012363692953,"lng":105.67796577179415,"name":"贵州省毕节市大方县理化乡政法委"},{"address":"贵州省黔西县新仁乡","id":"81ca1bdf-0184-47fa-b718-16e5d6af2a44","lat":26.863072,"lng":106.107224,"name":"贵州省黔西县新仁乡"},{"address":"贵州省金沙县新化乡党委","id":"1b3de501-a630-4ded-ab68-7d9a4be712d8","lat":27.430974,"lng":106.163865,"name":"贵州省金沙县新化乡党委"},{"address":"贵州省威宁自治县龙场镇","id":"7669f6cb-37cb-48a5-a35a-b7f0910f1210","lat":26.648618,"lng":104.547125,"name":"贵州省威宁自治县龙场镇"},{"address":"贵州省金沙县马路彝族苗族乡人民政府","id":"fe676c6d-8978-48a9-9fbc-b59a847a9e9c","lat":27.652562,"lng":105.833688,"name":"贵州省金沙县马路彝族苗族乡人民政府"},{"address":"贵州省毕节市七星关区整脏治乱和文明创建办公室","id":"96c77065-c935-46db-b346-4cee8c678793","lat":27.304165,"lng":105.311621,"name":"贵州省毕节市七星关区整脏治乱和文明创建办公室"},{"address":"贵州省织金县金龙苗族彝族布依族乡","id":"68c4f32c-325b-4edc-81e7-f43d66d38751","lat":26.922654,"lng":105.684548,"name":"贵州省织金县金龙苗族彝族布依族乡"},{"address":"贵州省纳雍县住房和城乡建设局党组","id":"ffea08cd-18b3-43e1-83f2-0e9565055231","lat":26.777036,"lng":105.387866,"name":"贵州省纳雍县住房和城乡建设局党组"},{"address":"贵州省黔西县委宣传部","id":"0d5294a5-0541-4492-831b-befb280403f0","lat":27.239168,"lng":105.837012,"name":"贵州省黔西县委宣传部"},{"address":"贵州省黔西县永燊乡党委","id":"7da3aa26-3929-4fb3-9750-73857ff53bfe","lat":27.107057,"lng":106.210604,"name":"贵州省黔西县永燊乡党委"},{"address":"贵州省赫章县财神镇人民政府","id":"5751c1de-e8e0-4fd1-a4cd-b6c342271683","lat":27.227374,"lng":104.607651,"name":"贵州省赫章县财神镇人民政府"},{"address":"挂职贵州省金沙县平坝镇","id":"c67bc5f3-4f1e-44ba-8cdb-7f615832c607","lat":27.510747061835552,"lng":106.16219511282065,"name":"挂职贵州省金沙县平坝镇"},{"address":"贵州省黔西县中建乡","id":"81e17b2d-09df-4fcb-a42f-8bf46edaf161","lat":27.284608,"lng":106.301536,"name":"贵州省黔西县中建乡"},{"address":"贵州省毕节市七星关区人民政府办公室","id":"be826aaa-7170-4ee7-bbc2-002756d0fb86","lat":27.322163,"lng":105.304247,"name":"贵州省毕节市七星关区人民政府办公室"},{"address":"贵州省纳雍县姑开苗族彝族乡","id":"01d79713-7e10-442f-900b-d433ca522b6c","lat":27.00717,"lng":105.104655,"name":"贵州省纳雍县姑开苗族彝族乡"},{"address":"贵州省纳雍县雍熙镇民生项目监督特派组","id":"a21309bd-3194-41da-a967-96a103041d5c","lat":26.779326673288008,"lng":105.3853682189767,"name":"贵州省纳雍县雍熙镇民生项目监督特派组"},{"address":"贵州省毕节市金沙县沙土镇政法委","id":"cca18d08-f13f-44f9-a119-bcced6a576f1","lat":27.38912090187008,"lng":106.60285481396573,"name":"贵州省毕节市金沙县沙土镇政法委"},{"address":"贵州省威宁自治县海边街道","id":"c0e7ff9e-9ace-4f71-8e98-e588b284cf5a","lat":26.871773,"lng":104.240417,"name":"贵州省威宁自治县海边街道"},{"address":"贵州省威宁自治县海边街道办事处","id":"ef83a4d5-bc92-4385-8365-f9314f4a2476","lat":26.87588,"lng":104.261265,"name":"贵州省威宁自治县海边街道办事处"},{"address":"贵州省毕节市七星关区天河风景名胜区管理处","id":"2edf960a-d11e-4e70-b798-5bf22deee811","lat":27.464053316004616,"lng":105.42355760083845,"name":"贵州省毕节市七星关区天河风景名胜区管理处"},{"address":"贵州省金沙县纪委第三纪工委","id":"669228cf-8cfd-4227-9f1e-fb665ce75dce","lat":27.471542677861745,"lng":106.2268521592366,"name":"贵州省金沙县纪委第三纪工委"},{"address":"贵州省大方县理化乡党委","id":"2095f6c1-680d-44a6-9bad-fd01df2b4012","lat":27.04506404911486,"lng":105.67433759309482,"name":"贵州省大方县理化乡党委"},{"address":"贵州省黔西县绿化乡","id":"7b7f4b1c-fe8e-43e3-b8ac-f3fe86dca160","lat":26.944981,"lng":106.110326,"name":"贵州省黔西县绿化乡"},{"address":"贵州省纳雍县锅圈岩乡苗族彝族乡","id":"a920de97-8926-45d3-a15e-8bafe3a378db","lat":26.917154,"lng":105.063598,"name":"贵州省纳雍县锅圈岩乡苗族彝族乡"},{"address":"贵州省威宁自治县猴场镇","id":"0a3f9b6d-0bf0-4522-a3fc-af9bd2829476","lat":26.701518,"lng":104.73396,"name":"贵州省威宁自治县猴场镇"},{"address":"贵州省毕节市织金县三甲街道办事处","id":"37d1a095-7346-4744-9a6d-f92d4270bfe7","lat":26.719861,"lng":105.864532,"name":"贵州省毕节市织金县三甲街道办事处"},{"address":"贵州省大方县六龙镇人民政府","id":"0f5a0af6-e8b6-471b-8982-4da2c5990485","lat":27.174173,"lng":105.705793,"name":"贵州省大方县六龙镇人民政府"},{"address":"金沙县纪律检查委员会第一纪律检查工作委员会","id":"0a35b65f-b923-4918-8145-32ddde6e008d","lat":27.470543,"lng":106.235473,"name":"金沙县纪律检查委员会第一纪律检查工作委员会"},{"address":"贵州省织金县实兴乡人民政府","id":"217931c5-5ce1-43d4-97a2-bb54d3d578e0","lat":26.53127,"lng":105.897456,"name":"贵州省织金县实兴乡人民政府"},{"address":"贵州省纳雍县人民政府文昌街道办事处","id":"ea9a02a4-0b2e-4f17-aed3-b106e863d348","lat":26.78376681565296,"lng":105.38919970397558,"name":"贵州省纳雍县人民政府文昌街道办事处"},{"address":"贵州省威宁自治县委政法委员会","id":"37764647-4fa7-41b6-b71a-d90b307ddba3","lat":26.76826,"lng":104.436459,"name":"贵州省威宁自治县委政法委员会"},{"address":"贵州省金沙县马路乡党委","id":"8a725287-fd09-4474-a1ee-4e959176be04","lat":27.65260081433572,"lng":105.8342092043139,"name":"贵州省金沙县马路乡党委"},{"address":"贵州省金沙县柳塘镇计划生育协会","id":"38110c16-c70b-431f-85ce-27babf1759cd","lat":27.420465,"lng":106.245682,"name":"贵州省金沙县柳塘镇计划生育协会"},{"address":"贵州省金沙县柳塘镇","id":"c2b219e5-32a6-4645-9fff-a16cee88ec9a","lat":27.420465,"lng":106.245682,"name":"贵州省金沙县柳塘镇"},{"address":"贵州省黔西县工商联","id":"59761f72-ba00-4772-a937-dc9c7c28c062","lat":27.289508,"lng":105.298389,"name":"贵州省黔西县工商联"},{"address":"贵州省纳雍县水东镇政法委","id":"671f1950-1584-4c9e-a109-2833c4d9cabd","lat":26.718381,"lng":105.567425,"name":"贵州省纳雍县水东镇政法委"},{"address":"贵州省大方县核桃乡纪委","id":"c973db49-2b86-4bb1-bcfd-905c53921928","lat":27.299942930274295,"lng":105.63220886130179,"name":"贵州省大方县核桃乡纪委"},{"address":"贵州省毕节市城管局七星关分局","id":"d77a6730-aca4-46bf-a413-c351fcd30255","lat":27.464053316004616,"lng":105.42355760083845,"name":"贵州省毕节市城管局七星关分局"},{"address":"贵州省威宁自治县中共海拉镇党委","id":"0846f534-4f35-4f7c-8541-8ec434492b01","lat":26.912946643101318,"lng":104.13788406340932,"name":"贵州省威宁自治县中共海拉镇党委"},{"address":"威宁自治县环保和科技局","id":"edeb19e0-d07a-4f4c-a441-fcd822a28d98","lat":26.912946643101318,"lng":104.13788406340932,"name":"威宁自治县环保和科技局"},{"address":"贵州省赫章县工商业联合会（商会)","id":"a4ebb58f-0683-4410-be6e-c2a394e4ea0e","lat":27.01195,"lng":106.043808,"name":"贵州省赫章县工商业联合会（商会)"},{"address":"贵州省金沙县安洛苗族彝族满族乡政府","id":"3bcef5c4-ac86-4154-af96-ce6a088705e6","lat":27.344068,"lng":106.099749,"name":"贵州省金沙县安洛苗族彝族满族乡政府"},{"address":"贵州织金洞风景名胜区管理局","id":"9d7cdb2e-97fe-4da1-9e19-757e0f4544f8","lat":0.0,"lng":0.0,"name":"贵州织金洞风景名胜区管理局"},{"address":"贵州省威宁自治县档案局（档案馆）","id":"6de38dfc-0b8e-488e-a045-9d7c060acc5f","lat":26.912946643101318,"lng":104.13788406340932,"name":"贵州省威宁自治县档案局（档案馆）"},{"address":"贵州省毕节市七星关区碧海街道办","id":"c7239c2a-6800-4488-b813-73d75052c760","lat":27.363493,"lng":105.431819,"name":"贵州省毕节市七星关区碧海街道办"},{"address":"贵州七星关区省毕节市海子街镇","id":"ab058167-8709-4f21-bf21-f7355fb519a0","lat":27.369838,"lng":105.384871,"name":"贵州七星关区省毕节市海子街镇"},{"address":"贵州省纳雍县居人街道党工委","id":"6f1cfb00-2f61-4ee0-b573-1b2834726b14","lat":26.795102083008498,"lng":105.26868668571373,"name":"贵州省纳雍县居人街道党工委"},{"address":"贵州省金沙县精神文明建设指导委员会办公室","id":"4abe3e1c-0d68-4fa3-9abd-db212fc1da05","lat":26.782044,"lng":105.389783,"name":"贵州省金沙县精神文明建设指导委员会办公室"},{"address":"贵州省毕节市金海湖新区（贵州毕节经济开发区）管理委员会","id":"ec880bc1-0456-4632-aa95-e1b546881c63","lat":27.234485,"lng":105.437852,"name":"贵州省毕节市金海湖新区（贵州毕节经济开发区）管理委员会"},{"address":"贵州省金沙县新化苗族彝族满族乡委员会政法委员会","id":"46385733-ef22-4d9f-a929-ae3b85bdab0c","lat":27.39916,"lng":106.198729,"name":"贵州省金沙县新化苗族彝族满族乡委员会政法委员会"},{"address":"贵州省纳雍县财政局党组","id":"48891be9-de22-4dd8-809c-67f1bb5d5098","lat":26.773155,"lng":105.383005,"name":"贵州省纳雍县财政局党组"},{"address":"贵州省纳雍县百兴镇人大主席团","id":"7cdd9faa-014f-4274-a481-beda29cf8762","lat":26.558135,"lng":105.280806,"name":"贵州省纳雍县百兴镇人大主席团"},{"address":"贵州省大方县马场镇党委","id":"c226b30b-238a-4d5a-bfad-a2b3fb4e0743","lat":26.95254103109441,"lng":105.4953315615871,"name":"贵州省大方县马场镇党委"},{"address":"贵州省黔西县重新镇政府","id":"ea8ae9ef-0a3a-4a0d-8dd3-de293ae97c26","lat":27.270673,"lng":106.206897,"name":"贵州省黔西县重新镇政府"},{"address":"贵州省金沙县岚头镇政府","id":"8e2900c5-a760-4229-a048-7c579719763a","lat":27.411452,"lng":106.513191,"name":"贵州省金沙县岚头镇政府"},{"address":"贵州省毕节市七星关区市东片区纪工委","id":"e7bcea7c-e877-4883-93ce-aff70b11fc50","lat":27.464053316004616,"lng":105.42355760083845,"name":"贵州省毕节市七星关区市东片区纪工委"},{"address":"贵州纳雍县人大常委会居仁街道工作委员会","id":"3eed76ea-c3c0-4d77-bc40-da48c70fe675","lat":26.783459620753987,"lng":105.3889427885998,"name":"贵州纳雍县人大常委会居仁街道工作委员会"},{"address":"贵州省百里杜鹃管理区百纳彝族乡党委","id":"f9800f32-6fc0-418e-a7f7-589154c28870","lat":25.698024856615813,"lng":100.16742694064195,"name":"贵州省百里杜鹃管理区百纳彝族乡党委"},{"address":"贵州省金沙县纪委（监察局）","id":"32cb882f-bb17-4597-b9e2-4e9338495a62","lat":27.146388,"lng":105.617589,"name":"贵州省金沙县纪委（监察局）"},{"address":"贵州省赫章县财神镇计划生育协会","id":"7ce06905-c3ab-4f1d-b35e-88cdf692ca2a","lat":27.160632,"lng":104.890346,"name":"贵州省赫章县财神镇计划生育协会"},{"address":"纳雍县人民政府居仁街道办事处武装部","id":"c77334f7-ca9f-44ff-b1a8-fddf044f1d2b","lat":26.795102083008498,"lng":105.26868668571373,"name":"纳雍县人民政府居仁街道办事处武装部"},{"address":"贵州省毕节市七星关区青场镇人民政府","id":"9959bc37-4f5b-4ece-bba3-5b0b41138361","lat":27.352839,"lng":105.030723,"name":"贵州省毕节市七星关区青场镇人民政府"},{"address":"贵州省毕节市七星关区洪山街","id":"1c8bb5b0-4db1-47a0-af54-920219159080","lat":27.304896,"lng":105.293175,"name":"贵州省毕节市七星关区洪山街"},{"address":"贵州百里杜鹃管理区沙厂彝族乡人民政府","id":"2021a0ed-ca1f-4ed1-b26a-ea43ecc44562","lat":25.698024856615813,"lng":100.16742694064195,"name":"贵州百里杜鹃管理区沙厂彝族乡人民政府"},{"address":"贵州省毕节市金沙县桂花乡人民政府","id":"be67374e-3c25-4e71-9e86-fa353e44daa6","lat":27.564774,"lng":106.095237,"name":"贵州省毕节市金沙县桂花乡人民政府"},{"address":"贵州省毕节市七星关区八寨镇第二届一次会议","id":"f6a5f34a-0ee0-453b-9c59-41644c992947","lat":27.41858406648065,"lng":105.38156975389174,"name":"贵州省毕节市七星关区八寨镇第二届一次会议"},{"address":"贵州省毕节市七星关区市西街道办事处党工委","id":"ca8dd0fb-52be-4463-a826-ea47ee47c1b9","lat":27.31392,"lng":105.295746,"name":"贵州省毕节市七星关区市西街道办事处党工委"},{"address":"贵州省毕节市七星关区委台湾工作办公室","id":"69aec668-a45a-4200-8afc-b43c54b9f632","lat":27.304165,"lng":105.311621,"name":"贵州省毕节市七星关区委台湾工作办公室"},{"address":"贵州省织金县绮陌街道党工委","id":"65ef9052-6e88-4ce0-beda-344d0bffd173","lat":26.730915,"lng":105.807909,"name":"贵州省织金县绮陌街道党工委"},{"address":"贵州省毕节市七星关区清水铺镇人民政府","id":"a64d8bba-adc7-45b4-96f9-d190d2860273","lat":27.668869,"lng":105.561835,"name":"贵州省毕节市七星关区清水铺镇人民政府"},{"address":"贵州省黔西县金兰镇人大","id":"29015e0d-bf65-4c7c-a9bd-7aa096588a1b","lat":26.754645,"lng":106.085068,"name":"贵州省黔西县金兰镇人大"},{"address":"贵州省毕节市大方县核桃乡人大","id":"6bdd7c85-35b9-4fb1-897b-ee14878178fa","lat":27.356547,"lng":105.675844,"name":"贵州省毕节市大方县核桃乡人大"},{"address":"贵州省黔西县定新彝族苗族乡人民政府","id":"e86bce84-96a4-4641-a030-11a15c85e3b9","lat":27.176199,"lng":106.143139,"name":"贵州省黔西县定新彝族苗族乡人民政府"},{"address":"贵州省威宁自治县观风海镇人民政府","id":"5a01eaae-102c-4946-bb2b-75526de86b4f","lat":26.974185,"lng":104.014678,"name":"贵州省威宁自治县观风海镇人民政府"},{"address":"贵州省大方县三元乡党委","id":"4dc3034c-4dd4-4205-838e-48067118acb4","lat":27.330724188940113,"lng":105.80157906514968,"name":"贵州省大方县三元乡党委"},{"address":"贵州省金沙县鼓场街道","id":"345a7f40-6cf0-466a-8a3e-3db8644c491c","lat":27.448863,"lng":106.214883,"name":"贵州省金沙县鼓场街道"},{"address":"贵州省毕节市七星关区扶贫开发办公室核桃办","id":"0cd3335c-94fa-4f89-bd11-d1d14c1a7138","lat":27.308373,"lng":105.290532,"name":"贵州省毕节市七星关区扶贫开发办公室核桃办"},{"address":"贵州省毕节市阿市乡","id":"e7195274-bfc1-4383-9c5a-cf7ce61bb46c","lat":27.580401,"lng":105.61721,"name":"贵州省毕节市阿市乡"},{"address":"贵州省织金县双堰街道","id":"65a0f58f-3021-42fc-81ab-f9bfc294da57","lat":26.673287,"lng":105.780505,"name":"贵州省织金县双堰街道"},{"address":"贵州省黔西锦星镇","id":"73187eb3-c403-47aa-84e6-a0cd87471dc0","lat":27.008041,"lng":105.929467,"name":"贵州省黔西锦星镇"},{"address":"贵州省织金县茶店乡","id":"b8dca656-323e-47c4-a107-c2a00b3cbb4a","lat":26.875765,"lng":105.779175,"name":"贵州省织金县茶店乡"},{"address":"贵州省毕节市七星关区阴底彝族苗族白族乡","id":"d33de789-c4da-482b-af3f-e47b8b3a3036","lat":27.115139,"lng":105.12471,"name":"贵州省毕节市七星关区阴底彝族苗族白族乡"},{"address":"贵州省金沙县安底镇","id":"66d6525f-eba3-4d08-b304-512e67b6ab27","lat":27.402098,"lng":106.44041,"name":"贵州省金沙县安底镇"},{"address":"贵州省威宁彝族回族苗族自治县政协","id":"6f0f91b9-5591-4ab9-81ce-b89b7460bb62","lat":26.862793,"lng":104.285167,"name":"贵州省威宁彝族回族苗族自治县政协"},{"address":"贵州省织金县人大常委会","id":"c528ac98-6406-4a4d-8271-8c5b0209e823","lat":26.669161,"lng":105.777163,"name":"贵州省织金县人大常委会"},{"address":"贵州省大方县牛场乡纪委","id":"fb9abaee-dab3-4275-bfe7-bfb499b105bd","lat":26.92467175347712,"lng":105.56619104193706,"name":"贵州省大方县牛场乡纪委"},{"address":"贵州省织金县大平乡党委","id":"50f81284-4004-42ef-ab80-a76c3fdce8f4","lat":26.785762675114405,"lng":106.04143894302004,"name":"贵州省织金县大平乡党委"},{"address":"贵州省威宁自治县羊街镇","id":"f9c1eb7d-7e15-4a95-aa7a-2aecad9f565c","lat":27.06481,"lng":104.354106,"name":"贵州省威宁自治县羊街镇"},{"address":"贵州省毕节金海湖新区文阁乡","id":"60a210b3-c34f-4439-885e-f718f6707fc9","lat":40.038681701253104,"lng":116.43954432984577,"name":"贵州省毕节金海湖新区文阁乡"},{"address":"贵州省纳雍县龙场镇","id":"7421f16f-bdc9-4557-af81-07deb381cf40","lat":26.854902,"lng":105.258324,"name":"贵州省纳雍县龙场镇"},{"address":"贵州省毕节市七星关区燕子口镇","id":"dc53fef7-d7cb-4410-a772-14e2fa76dfa4","lat":27.597354,"lng":105.428854,"name":"贵州省毕节市七星关区燕子口镇"},{"address":"贵州省毕节市七星关清水铺镇人民政府","id":"cf0eb729-0906-43f8-8d1c-29bcfce50a19","lat":27.669307375499983,"lng":105.56174454105401,"name":"贵州省毕节市七星关清水铺镇人民政府"},{"address":"贵州省黔西县文峰办事处","id":"a3b3c180-a4eb-4324-8462-309e29b8a134","lat":27.086384569459483,"lng":106.1405027568135,"name":"贵州省黔西县文峰办事处"},{"address":"贵州省黔西县大关镇","id":"c98cedef-35d9-4e14-bff9-32ddf84aa814","lat":26.888222,"lng":106.17235,"name":"贵州省黔西县大关镇"},{"address":"贵州省金沙县纪委","id":"eaede146-e515-448c-993c-92acdd087787","lat":27.470543,"lng":106.235473,"name":"贵州省金沙县纪委"},{"address":"毕节市七星关区大银镇","id":"63879298-cab7-414a-b756-baa09ff4adb2","lat":27.569485,"lng":105.309965,"name":"毕节市七星关区大银镇"},{"address":"贵州省毕节市监察局","id":"9b86ccfb-aced-4318-9031-b90b448e7abe","lat":27.305838,"lng":105.311786,"name":"贵州省毕节市监察局"},{"address":"贵州省织金县白泥镇人民政府","id":"46f11e37-d24e-4b55-acd2-2a5b432b5818","lat":26.396622,"lng":105.54562,"name":"贵州省织金县白泥镇人民政府"},{"address":"贵州省纳雍县委","id":"d352df73-eb0d-4d07-a157-f98886cb2443","lat":26.783744,"lng":105.389005,"name":"贵州省纳雍县委"},{"address":"贵州省毕节市总工会","id":"0880bb14-04f1-4c53-b060-ae7870816284","lat":27.307735,"lng":105.291966,"name":"贵州省毕节市总工会"},{"address":"贵州省金沙县岚头镇党委","id":"2395e44f-4cb9-4ab6-b5ca-f20daabf6f65","lat":27.41139534919761,"lng":106.5133014001287,"name":"贵州省金沙县岚头镇党委"},{"address":"自治县纪律检查委员会陕桥街道工作委员会","id":"cc2bbed1-a6a1-4a50-96f3-9eaffe7505c3","lat":41.57177428282961,"lng":120.46020873435084,"name":"自治县纪律检查委员会陕桥街道工作委员会"},{"address":"贵州省赫章县罗州乡","id":"646c25cd-c04e-4ef3-8325-cd3bbc0ec7af","lat":27.125225,"lng":104.539165,"name":"贵州省赫章县罗州乡"},{"address":"贵州省赫章县松林坡乡白族彝族苗族乡","id":"cb1e6908-7abb-4a28-b1c5-3f1bc0d08cea","lat":26.89006,"lng":104.890724,"name":"贵州省赫章县松林坡乡白族彝族苗族乡"},{"address":"贵州省威宁自治县观风海镇","id":"66ad3360-9e0e-4d1e-9803-ced831402981","lat":26.973955,"lng":104.014444,"name":"贵州省威宁自治县观风海镇"},{"address":"贵州省织金县中寨镇","id":"9664b762-dff0-47e2-b567-ff9d1f89d265","lat":26.66993,"lng":105.662512,"name":"贵州省织金县中寨镇"},{"address":"贵州省毕节市大方县星宿乡武装部","id":"9ff15c79-cfb3-40ae-854e-32c8c12662bc","lat":27.357250115373578,"lng":105.87798075722303,"name":"贵州省毕节市大方县星宿乡武装部"},{"address":"贵州省织金县牛场镇","id":"5e31cdfa-9dac-453b-973f-712be40fdf39","lat":26.625768,"lng":106.018366,"name":"贵州省织金县牛场镇"},{"address":"贵州省织金县后寨苗族乡","id":"40ee0973-60f1-4257-9c81-3d21e02034c3","lat":26.602191,"lng":105.610434,"name":"贵州省织金县后寨苗族乡"},{"address":"贵州省黔西县重新镇人民政府","id":"6bf2ce74-34bd-4143-8edd-0c9ab0b5daf8","lat":27.270673,"lng":106.206897,"name":"贵州省黔西县重新镇人民政府"},{"address":"民盟黔西县工作委员会","id":"f71a377b-aac3-43ed-90f6-f995933b068c","lat":27.028444,"lng":106.045146,"name":"民盟黔西县工作委员会"},{"address":"贵州省纳雍县雍熙街道党工委","id":"7df0d407-e204-414b-9abe-e2eee54313dc","lat":26.718382,"lng":105.567425,"name":"贵州省纳雍县雍熙街道党工委"},{"address":"贵州省大方县慕俄格古城街道办事处","id":"17dc1c59-b633-43d7-98ac-3f917c2e71fb","lat":27.147061,"lng":105.620959,"name":"贵州省大方县慕俄格古城街道办事处"},{"address":"贵州省金沙县柳塘镇纪委","id":"7e6c1df6-1ffb-41aa-af05-86f71171f91a","lat":27.420465,"lng":106.245682,"name":"贵州省金沙县柳塘镇纪委"},{"address":"贵州省赫章县达依乡","id":"d7638397-7c4a-48e3-9c52-34e531a9d24f","lat":27.190751,"lng":104.73544,"name":"贵州省赫章县达依乡"},{"address":"贵州省织金县官寨乡人民政府","id":"1f451f1a-2c92-4c23-b0dc-c4f9ab3e3345","lat":26.77328,"lng":105.895194,"name":"贵州省织金县官寨乡人民政府"},{"address":"百里杜鹃管理区党工委组织部","id":"5c2a4544-53ab-4d9d-b7ce-eaaee55dd3a3","lat":27.228697,"lng":105.846785,"name":"百里杜鹃管理区党工委组织部"},{"address":"贵州省百里杜鹃管理区","id":"a2ab399b-9567-4b08-93d2-cf17396b8e17","lat":27.228697,"lng":105.846785,"name":"贵州省百里杜鹃管理区"},{"address":"贵州省纳雍县锅圈岩乡","id":"c70c0b33-704d-43f6-ae54-b1dfad34d322","lat":26.91784,"lng":105.06572,"name":"贵州省纳雍县锅圈岩乡"},{"address":"中共贵州省威宁自治县小海镇","id":"3e9b4e54-67ab-47c0-a99e-f08d03bd3ed9","lat":26.947145,"lng":104.141644,"name":"中共贵州省威宁自治县小海镇"},{"address":"贵州省纳雍县骔岭镇人民政府","id":"f2916f2c-3beb-4351-801a-1d8c46543ef9","lat":26.713875,"lng":105.27363,"name":"贵州省纳雍县骔岭镇人民政府"},{"address":"贵州省毕节市妇女联合会","id":"7e65db85-e129-4374-87ca-1b93f6c2b4d8","lat":27.203935,"lng":105.319593,"name":"贵州省毕节市妇女联合会"},{"address":"贵州省毕节市民族中学","id":"669add00-048a-4f3a-8cd9-fb4cd2c386c2","lat":27.294847,"lng":105.305792,"name":"贵州省毕节市民族中学"},{"address":"贵州省纳雍县张家湾镇人大","id":"36d1c014-ef67-42ba-8b7d-d97caf93ca3c","lat":26.624678808006916,"lng":105.4018145354853,"name":"贵州省纳雍县张家湾镇人大"},{"address":"贵州省毕节市织金县金凤街道","id":"4cdaba8d-7f4e-40ec-a77a-adaf04a2043d","lat":27.021874,"lng":106.018609,"name":"贵州省毕节市织金县金凤街道"},{"address":"贵州省毕节市黔西县雨朵镇党委","id":"ed7a7914-8a5b-4671-ab66-d07b3265dadf","lat":26.90946249429228,"lng":106.04837182599451,"name":"贵州省毕节市黔西县雨朵镇党委"},{"address":"贵州省纳雍县董地苗族彝族乡党委","id":"0d6dc84f-451b-4380-b145-32b7ef542ee0","lat":26.950112192411286,"lng":105.24883598625574,"name":"贵州省纳雍县董地苗族彝族乡党委"},{"address":"贵州省织金县民族和宗教事务局","id":"eccc0f2f-794a-4066-bc66-987aaf82d4b3","lat":26.615333373403335,"lng":105.73204873020813,"name":"贵州省织金县民族和宗教事务局"},{"address":"贵州省织金县黑土镇","id":"a1f15286-0f7d-4eba-befc-8a2448d41e7c","lat":26.505137,"lng":105.774768,"name":"贵州省织金县黑土镇"},{"address":"贵州省金沙县源村乡人民政府","id":"30ba904b-8d53-43f2-abf1-f6451c951816","lat":27.459598,"lng":106.672769,"name":"贵州省金沙县源村乡人民政府"},{"address":"贵州省金沙县西洛街道纪工委","id":"23bee818-04a1-4e3b-b40b-63b9e1168f50","lat":27.470543,"lng":106.235473,"name":"贵州省金沙县西洛街道纪工委"},{"address":"贵州省织金县金凤街道","id":"3aa6ff13-256a-4769-b07c-47dfd9aeef66","lat":27.021874,"lng":106.018609,"name":"贵州省织金县金凤街道"},{"address":"贵州省黔西县金兰镇党委","id":"9c065cd0-1d10-4ace-89f8-78b043d7fd77","lat":26.84413358649877,"lng":106.0229431236267,"name":"贵州省黔西县金兰镇党委"},{"address":"贵州省毕节市黔西县协和镇党委","id":"63fb0629-1fa9-4ac3-a829-b8030a7882dd","lat":27.068381,"lng":106.267667,"name":"贵州省毕节市黔西县协和镇党委"},{"address":"贵州省毕节市赫章县六曲河镇","id":"908a79b7-113b-463e-87ae-8a6a9c6ec04a","lat":27.234726,"lng":104.712289,"name":"贵州省毕节市赫章县六曲河镇"},{"address":"贵州省毕节金海湖新区（贵州毕节经济开发区）响水乡党委","id":"1b59ff17-35d6-492e-ae1d-397d96075cca","lat":27.234485,"lng":105.437852,"name":"贵州省毕节金海湖新区（贵州毕节经济开发区）响水乡党委"},{"address":"贵州省毕节市七星关区清水铺镇","id":"605f9db2-cf64-4b99-ac9b-8a9e65f85d21","lat":27.668978,"lng":105.561961,"name":"贵州省毕节市七星关区清水铺镇"},{"address":"贵州省赫章县安乐溪乡","id":"def61801-e0b4-4bf6-95af-5d72e3eb4d65","lat":27.360735,"lng":104.453179,"name":"贵州省赫章县安乐溪乡"},{"address":"贵州省织金县三塘镇","id":"da67719b-6294-4e8f-b442-e98119a44909","lat":26.577699,"lng":105.555211,"name":"贵州省织金县三塘镇"},{"address":"大方县六龙镇","id":"a1217581-2b18-4f9f-9dca-18fc7768ac11","lat":27.174173,"lng":105.705793,"name":"大方县六龙镇"},{"address":"贵州省威宁县东风镇","id":"f1e140e6-d7f5-4eab-b84f-799d50fbe887","lat":26.801878,"lng":104.595989,"name":"贵州省威宁县东风镇"},{"address":"贵州省金沙县茶园镇人民政府","id":"9f703bd8-17b6-4a56-b5af-9023eaa1fb08","lat":27.4778,"lng":106.440114,"name":"贵州省金沙县茶园镇人民政府"},{"address":"贵州省纳雍县沙包镇人大","id":"bf091b75-2a4c-4df7-9ae6-10dbd9679f2a","lat":26.854877,"lng":105.398168,"name":"贵州省纳雍县沙包镇人大"},{"address":"贵州省金沙县三化试验区管委会","id":"2641b650-47f9-4ca7-a568-1c17d3523bf8","lat":27.471542677861745,"lng":106.2268521592366,"name":"贵州省金沙县三化试验区管委会"},{"address":"贵州省金沙县沙土镇三化试验区党工委","id":"a65cdcd3-99cb-48b6-987f-0c106d2359a6","lat":27.38912090187008,"lng":106.60285481396573,"name":"贵州省金沙县沙土镇三化试验区党工委"},{"address":"贵州省织金县交通运输局","id":"550a79fa-130a-4afa-8bc3-0697321976c6","lat":26.675732,"lng":105.778212,"name":"贵州省织金县交通运输局"},{"address":"贵州省黔西县中坪镇人民政府","id":"44fb8e30-dff1-4553-811b-12a8c2f0ee38","lat":27.211446,"lng":106.285227,"name":"贵州省黔西县中坪镇人民政府"},{"address":"民盟贵州省毕节市委员会","id":"4104995f-67b8-4306-b308-349c2354b57c","lat":29.8676846833016,"lng":118.4210767329962,"name":"民盟贵州省毕节市委员会"},{"address":"农工党毕节市委","id":"577d981b-5340-49ec-a332-577e33c38730","lat":31.786859320619612,"lng":119.96103011715563,"name":"农工党毕节市委"},{"address":"贵州省威宁自治县监察局第五监察分局","id":"50616326-6e36-41b2-a870-9699409c274f","lat":26.912946643101318,"lng":104.13788406340932,"name":"贵州省威宁自治县监察局第五监察分局"},{"address":"贵州省威宁自治县财政局","id":"b50b023f-e460-43b7-9008-ffcba0dfec39","lat":26.881211,"lng":104.254099,"name":"贵州省威宁自治县财政局"},{"address":"贵州毕节金海湖新区（贵州毕节经济开发区）小坝镇党委","id":"2cfabde5-dc52-4162-953b-cde498a167d3","lat":27.234485,"lng":105.437852,"name":"贵州毕节金海湖新区（贵州毕节经济开发区）小坝镇党委"},{"address":"贵州省毕节市织金县三甲街道","id":"b0dbbb28-43b2-4bed-8d79-fbe69a7e586a","lat":26.712699,"lng":105.859712,"name":"贵州省毕节市织金县三甲街道"},{"address":"贵州省黔西县协和镇党委","id":"3d0eae63-b0bc-4a11-af22-fe51aae7ac08","lat":27.068381,"lng":106.267667,"name":"贵州省黔西县协和镇党委"},{"address":"贵州省纳雍县环境保护局","id":"73b5ea88-ea0c-4448-8706-7305dc236ea0","lat":26.778161,"lng":105.387826,"name":"贵州省纳雍县环境保护局"},{"address":"贵州省织金县茶店乡党委","id":"4ce8e43f-69fe-4170-a220-aba9296a72ca","lat":26.87142,"lng":105.777522,"name":"贵州省织金县茶店乡党委"},{"address":"贵州省纳雍县羊场苗族彝族乡人民政府","id":"ba52b6ae-a912-4122-9f76-2605fa8fe8ca","lat":27.031313,"lng":105.054384,"name":"贵州省纳雍县羊场苗族彝族乡人民政府"},{"address":"金沙县大田彝族苗族布依族乡人民政府","id":"b4067cdd-cde1-47b2-978c-6b87de15f664","lat":27.40122,"lng":106.055672,"name":"金沙县大田彝族苗族布依族乡人民政府"},{"address":"中共贵州省毕节市七星关区田坎彝族乡委员会","id":"f112c78d-0ca3-4f98-80d6-301ba50b7ca0","lat":27.704533176166265,"lng":105.85832498646741,"name":"中共贵州省毕节市七星关区田坎彝族乡委员会"},{"address":"贵州省大方县三元乡武装部","id":"12a3d8ca-9f55-4b83-acd4-df3fb504af9b","lat":27.330724188940113,"lng":105.80157906514968,"name":"贵州省大方县三元乡武装部"},{"address":"贵州百里杜鹃管理区管理委员会党组","id":"027b4add-5a29-4bc3-b54a-ac0a3c23ef68","lat":27.228697,"lng":105.846785,"name":"贵州百里杜鹃管理区管理委员会党组"},{"address":"贵州毕节市七星关区扶贫开发办公室","id":"551bdd52-9571-404a-84b9-9a196ee8b4c7","lat":27.308373,"lng":105.290532,"name":"贵州毕节市七星关区扶贫开发办公室"},{"address":"贵州省金沙县民生监督后山镇监督组","id":"022e9df9-6a60-4fb9-9685-f06be7ae54eb","lat":27.471542677861745,"lng":106.2268521592366,"name":"贵州省金沙县民生监督后山镇监督组"},{"address":"贵州省毕节市七星关区团结乡人民政府","id":"a18f5727-f121-4589-9a09-0eb07acf6a48","lat":27.464053316004616,"lng":105.42355760083845,"name":"贵州省毕节市七星关区团结乡人民政府"},{"address":"赫章县财政局妈姑分局","id":"1ef9d1de-bb56-4d40-b2f8-6f27c13999e4","lat":26.97109248622741,"lng":104.56839832461803,"name":"赫章县财政局妈姑分局"},{"address":"贵州省黔西县铁石乡人民政府","id":"117871f4-1eef-4b8c-9dfb-d19490198007","lat":26.930166,"lng":106.290689,"name":"贵州省黔西县铁石乡人民政府"},{"address":"贵州省黔西县财政局","id":"3055bf34-16e7-471c-86bf-20f588bfa041","lat":27.029177,"lng":106.044617,"name":"贵州省黔西县财政局"},{"address":"贵州省毕节市大方县教育党工委","id":"8994149f-7537-48ef-a49c-035bf895cf7e","lat":27.253059626031487,"lng":105.73720221998492,"name":"贵州省毕节市大方县教育党工委"},{"address":"贵州省毕节市七星关城市综合执法大队党组","id":"cf2d13d6-a37f-45af-a259-2391edb883d1","lat":27.464053316004616,"lng":105.42355760083845,"name":"贵州省毕节市七星关城市综合执法大队党组"},{"address":"贵州省金沙县交通运输局","id":"253c8d4e-c56d-4f4b-a21c-1fb44e578098","lat":27.461347,"lng":106.23389,"name":"贵州省金沙县交通运输局"},{"address":"贵州省威宁自治县中共海拉镇委员会","id":"e470aea9-463b-43e5-b7d9-128fbff205dd","lat":26.912946643101318,"lng":104.13788406340932,"name":"贵州省威宁自治县中共海拉镇委员会"},{"address":"贵州省大方县交通运输局","id":"e6545484-e76f-429b-a0d8-2766b865242a","lat":27.308156,"lng":105.314073,"name":"贵州省大方县交通运输局"},{"address":"贵州省纳雍县沙包镇","id":"12168693-710e-4711-9b43-e6249c5cf5f8","lat":26.816115,"lng":105.400934,"name":"贵州省纳雍县沙包镇"},{"address":"贵州省威宁自治县农牧局","id":"f01fea05-155c-4d93-a425-b5a05470e1b7","lat":27.314817,"lng":105.286813,"name":"贵州省威宁自治县农牧局"},{"address":"贵州省毕节市织金县牛场镇人民政府","id":"e4f55458-97e8-4653-a8a2-85454939fdcb","lat":26.625768,"lng":106.018366,"name":"贵州省毕节市织金县牛场镇人民政府"},{"address":"贵州省毕节市织金县牛场镇党委","id":"bc47cfd5-5513-4844-9c28-1ad5e0ee98c3","lat":26.62579529289986,"lng":106.01840091008822,"name":"贵州省毕节市织金县牛场镇党委"},{"address":"贵州省毕节市七星关区工能局","id":"4402129c-acd1-41be-9217-cf4507d6252d","lat":27.464053316004616,"lng":105.42355760083845,"name":"贵州省毕节市七星关区工能局"},{"address":"贵州黔西经济开发区党工委","id":"96a85b10-193a-4e18-8da5-9f4caa344e37","lat":27.086384569459483,"lng":106.1405027568135,"name":"贵州黔西经济开发区党工委"},{"address":"贵州省黔西县太来彝族苗族乡人民政府","id":"8fa5a5d2-ac04-4fe7-8c74-bdf64d19e9be","lat":27.063504,"lng":106.350157,"name":"贵州省黔西县太来彝族苗族乡人民政府"},{"address":"贵州省大方县猫场镇党委","id":"bbb99ba4-1e95-437d-9f10-7196b34fbe62","lat":26.9894,"lng":105.356445,"name":"贵州省大方县猫场镇党委"},{"address":"贵州省黔西县协和镇","id":"8a250e6e-5a9f-4382-a7ad-74c9167d2f53","lat":27.068381,"lng":106.267668,"name":"贵州省黔西县协和镇"},{"address":"贵州省毕节市中级人民法院政治部","id":"58327b65-4143-496f-93a4-b96074ddf3c6","lat":27.304828,"lng":105.293682,"name":"贵州省毕节市中级人民法院政治部"},{"address":"贵州省织金县维稳办","id":"3b7fdd79-43f1-42cc-9f85-7657076f13c7","lat":26.615333373403335,"lng":105.73204873020813,"name":"贵州省织金县维稳办"},{"address":"民建威宁彝族回族苗族自治县支委","id":"d7cd4b88-2844-40f2-906e-ac8eea5c0684","lat":26.92138200253057,"lng":104.22408619137136,"name":"民建威宁彝族回族苗族自治县支委"},{"address":"贵州省黔西县人民法院","id":"b35fdbf0-2fb9-44c1-8b59-d4f3fef7053f","lat":27.019121,"lng":106.045207,"name":"贵州省黔西县人民法院"},{"address":"贵州省威宁自治县计划生育协会","id":"516c32f4-4f58-4a1f-bf9b-4b389985d51e","lat":27.126067,"lng":104.731292,"name":"贵州省威宁自治县计划生育协会"},{"address":"贵州省赫章县辅处彝族苗族乡","id":"e4509c3c-2dae-4110-9d26-c54ae329e656","lat":27.150756,"lng":104.326485,"name":"贵州省赫章县辅处彝族苗族乡"},{"address":"贵州省毕节市七星关区计划生育协会","id":"36dc3bb1-8193-41b1-be41-e3f991f9f883","lat":27.319654,"lng":105.29765,"name":"贵州省毕节市七星关区计划生育协会"},{"address":"贵州毕节金海湖新区文阁乡","id":"d5c022dd-a174-4014-b8d4-91c39bb3fd8e","lat":40.038681701253104,"lng":116.43954432984577,"name":"贵州毕节金海湖新区文阁乡"},{"address":"贵州省黔西县文峰街道工作委员会","id":"abc52dc5-ca07-42cf-bb91-7b9f5e6f4ee6","lat":27.086384569459483,"lng":106.1405027568135,"name":"贵州省黔西县文峰街道工作委员会"},{"address":"贵州省黔西县文峰街道党工委","id":"4b1331ce-eb3d-4c37-a64d-7242ccd22f30","lat":27.086384569459483,"lng":106.1405027568135,"name":"贵州省黔西县文峰街道党工委"},{"address":"贵州省赫章县财神镇","id":"2d807269-c987-4d40-9815-33ea7427d1dd","lat":27.227374,"lng":104.607651,"name":"贵州省赫章县财神镇"},{"address":"贵州省织金县官寨乡委员会","id":"ed0a244c-8b65-4f56-867c-dbb8a78bc34c","lat":26.772788,"lng":105.89607,"name":"贵州省织金县官寨乡委员会"},{"address":"贵州省金沙县西洛街道党工委","id":"a09464bd-1532-41f3-9345-82771f106bfe","lat":27.430974,"lng":106.163865,"name":"贵州省金沙县西洛街道党工委"},{"address":"贵州省黔西县太来乡","id":"05c4e7a2-6be3-49cd-b324-28a5bb809786","lat":27.067255,"lng":106.348727,"name":"贵州省黔西县太来乡"},{"address":"贵州省大方县政协党组","id":"6daad44f-de26-4aae-b2c1-ede37e5f4147","lat":27.147134,"lng":105.61809,"name":"贵州省大方县政协党组"},{"address":"贵州省黔西县金兰镇","id":"54cac6f1-a470-452b-bcb2-8e2a31253707","lat":26.844134,"lng":106.022943,"name":"贵州省黔西县金兰镇"},{"address":"贵州省威宁自治县海拉镇","id":"a73de490-d004-449d-b408-617d5dfdc2bc","lat":26.782057,"lng":103.766993,"name":"贵州省威宁自治县海拉镇"},{"address":"贵州省毕节市织金县人民检察院","id":"7cae7186-bb16-4cb1-8fb3-ae02bbff91c7","lat":26.680592,"lng":105.780834,"name":"贵州省毕节市织金县人民检察院"},{"address":"贵州省毕节金海湖新区（贵州毕节经济开发区）响水乡","id":"9d110658-eacb-4dac-8ebe-2c9990dbf9f0","lat":27.234485,"lng":105.437852,"name":"贵州省毕节金海湖新区（贵州毕节经济开发区）响水乡"},{"address":"贵州省织金县工业经济和能源局","id":"b58a6ef9-24aa-4649-95ed-6625df75eb2a","lat":26.780603,"lng":105.390203,"name":"贵州省织金县工业经济和能源局"},{"address":"贵州省金沙县岩孔街道办事处","id":"2ba8217b-6741-4fda-8828-6f684c4ab678","lat":27.36152179930772,"lng":106.63769428522589,"name":"贵州省金沙县岩孔街道办事处"},{"address":"贵州省威宁自治县金斗乡","id":"5beed28f-35d1-44c5-9ed6-e364a58216b0","lat":26.685951,"lng":104.300478,"name":"贵州省威宁自治县金斗乡"},{"address":"贵州省金沙县桂花乡人民代表大会","id":"2ffdb4e2-a14f-4319-bf21-5bad09568d30","lat":27.56477128433808,"lng":106.09515990317803,"name":"贵州省金沙县桂花乡人民代表大会"},{"address":"贵州省金沙县太平彝族苗族乡党委","id":"9db64871-bad0-4352-92f1-5eabbf092a88","lat":27.594799736554243,"lng":105.9237309034749,"name":"贵州省金沙县太平彝族苗族乡党委"},{"address":"贵州省毕节市七星关区小吉场镇","id":"c7869943-1ff0-4db2-8d14-bdd125a024a6","lat":27.515923,"lng":105.524804,"name":"贵州省毕节市七星关区小吉场镇"},{"address":"贵州省大方县兴隆乡人民政府","id":"8efd55ce-fbb7-441f-97ee-4dca0d0a2f01","lat":27.471826,"lng":105.65299,"name":"贵州省大方县兴隆乡人民政府"},{"address":"民盟贵州省毕节市第一人民医院支部","id":"6764df71-0ce7-429a-a6b3-dcee45624d0f","lat":22.852858932548155,"lng":113.25473651622342,"name":"民盟贵州省毕节市第一人民医院支部"},{"address":"贵州省金沙县桂花乡","id":"b0a395bf-2b11-463d-96f7-d56742f928d1","lat":27.564777,"lng":106.095111,"name":"贵州省金沙县桂花乡"},{"address":"贵州省大方县羊场镇","id":"b3b06b67-fa39-4d9f-b06a-f3ed37c0e7b3","lat":27.078436,"lng":105.682293,"name":"贵州省大方县羊场镇"},{"address":"贵州省赫章县哲庄乡党委","id":"b1d09831-3bee-4f6e-b312-d87dba7d441c","lat":27.31962721144736,"lng":104.83359855471271,"name":"贵州省赫章县哲庄乡党委"},{"address":"贵州省金沙县长坝镇委员会","id":"06c20fb3-ae18-4171-af21-70963cb68329","lat":27.471542677861745,"lng":106.2268521592366,"name":"贵州省金沙县长坝镇委员会"},{"address":"贵州省大方县理化乡人民政府","id":"e9ebb3b5-2357-49f8-8f4d-2084de263d0b","lat":27.078639,"lng":105.682054,"name":"贵州省大方县理化乡人民政府"},{"address":"贵州省毕节市七星关区放珠镇","id":"49d1cf66-66bb-4c83-9aaa-ec1a933b8d8a","lat":27.248739,"lng":104.953378,"name":"贵州省毕节市七星关区放珠镇"},{"address":"贵州省威宁自治县哈喇河镇人民政府","id":"9de0a44c-9d7c-4724-989c-03d23b3f12f9","lat":26.829138,"lng":104.003278,"name":"贵州省威宁自治县哈喇河镇人民政府"},{"address":"贵州省金沙县经济开发区党工委","id":"f05b0e04-25fc-4972-a92f-5aaa12c6a60b","lat":27.471542677861745,"lng":106.2268521592366,"name":"贵州省金沙县经济开发区党工委"},{"address":"贵州百里杜鹃管理区金坡苗族彝族满族乡","id":"3918e4a1-a736-4c3b-a672-479df11a3665","lat":27.166449,"lng":105.95562,"name":"贵州百里杜鹃管理区金坡苗族彝族满族乡"},{"address":"贵州省金沙县新化苗族彝族满族乡委员会","id":"da1f908d-1c09-462b-9c80-decdba77a1a7","lat":27.40438,"lng":106.12176,"name":"贵州省金沙县新化苗族彝族满族乡委员会"},{"address":"贵州省大方县牛场乡人民政府","id":"424de9cd-6163-40c8-8945-b91863d9df20","lat":26.926859,"lng":105.566846,"name":"贵州省大方县牛场乡人民政府"},{"address":"贵州省纳雍县曙光乡人民政府","id":"7094f4a5-42df-4f83-bdc0-115536d7f8ae","lat":26.633809,"lng":105.197217,"name":"贵州省纳雍县曙光乡人民政府"},{"address":"贵州省威宁彝族回族苗族自治县石门乡","id":"110e0e6c-fc4d-465c-866d-06c9bc8b63d4","lat":27.36628,"lng":103.958941,"name":"贵州省威宁彝族回族苗族自治县石门乡"},{"address":"贵州省大方县人大常委会","id":"1becc6a8-d9f7-452d-8256-224552a14f72","lat":27.290325,"lng":105.297377,"name":"贵州省大方县人大常委会"},{"address":"贵州省黔西县大关镇党委","id":"bbcc1033-5d37-4b33-af89-4faf49aab193","lat":26.869264,"lng":106.17822,"name":"贵州省黔西县大关镇党委"},{"address":"贵州百里杜鹃金坡乡","id":"f69e89ed-4a00-4386-8b3b-d9b36d305666","lat":27.306164,"lng":105.316426,"name":"贵州百里杜鹃金坡乡"},{"address":"贵州省黔西县民政局","id":"afc223f0-183d-46c7-9257-50b385633210","lat":27.028515,"lng":106.045165,"name":"贵州省黔西县民政局"},{"address":"贵州省纳雍县水东镇纪委","id":"117bc77c-191f-4e0f-97d6-041ae0d42c59","lat":26.718382,"lng":105.567425,"name":"贵州省纳雍县水东镇纪委"},{"address":"贵州省纳雍县勺窝乡民生项目监督特派组","id":"12fe7bdb-7b6f-41ba-806c-47d4b3f4aed8","lat":26.76281802484756,"lng":105.2853828066117,"name":"贵州省纳雍县勺窝乡民生项目监督特派组"},{"address":"贵州省纳雍县猪场苗族彝族乡武装部","id":"9ed5b1a4-7679-466d-b86a-b93875e5d9d3","lat":26.80888881069503,"lng":105.13136758138326,"name":"贵州省纳雍县猪场苗族彝族乡武装部"},{"address":"贵州织金经济开发区（织金县产业园区）","id":"bae0a98f-3e47-4dc3-ae09-474299e59568","lat":26.615333373403335,"lng":105.73204873020813,"name":"贵州织金经济开发区（织金县产业园区）"},{"address":"贵州省毕节市金沙县沙土镇党委","id":"eab7c7d0-74ce-4480-bcd9-78d9a3900449","lat":27.38870740849727,"lng":106.60275924414086,"name":"贵州省毕节市金沙县沙土镇党委"},{"address":"贵州省黔西县锦星镇党委","id":"9e8b369e-0be2-4a45-ad18-7c38b34d357e","lat":27.045438,"lng":105.870121,"name":"贵州省黔西县锦星镇党委"},{"address":"贵州省七星关区大河乡人民政府","id":"1b909b83-231a-490e-a58f-e3ecaa2ac2cc","lat":27.287583436660398,"lng":104.92148683532137,"name":"贵州省七星关区大河乡人民政府"},{"address":"贵州省毕节市黔西县太来乡","id":"bb3c1d67-1ce9-4f4c-8920-47192078aa27","lat":27.067255,"lng":106.348727,"name":"贵州省毕节市黔西县太来乡"},{"address":"贵州省大方县达溪镇","id":"93d7207a-9afc-4815-91d3-a16db40e4718","lat":27.356548,"lng":105.675844,"name":"贵州省大方县达溪镇"},{"address":"贵州省毕节市七星关千溪乡人民政府","id":"cb00141a-c068-47cb-89ec-9b789d4f2bd2","lat":27.464053316004616,"lng":105.42355760083845,"name":"贵州省毕节市七星关千溪乡人民政府"},{"address":"贵州省金沙县第四纪工委","id":"79597791-31a8-4452-966b-c278dc740288","lat":27.470541,"lng":106.235473,"name":"贵州省金沙县第四纪工委"},{"address":"贵州省威宁自治县住房和城乡建设局","id":"2f21ab08-d6cb-44da-ba15-0672fd3f7aab","lat":26.874255,"lng":104.281239,"name":"贵州省威宁自治县住房和城乡建设局"},{"address":"贵州省威宁自治县龙街镇民生项目监督特派组组","id":"5a79c5c6-a92e-44cb-933b-c7840552bc10","lat":26.912946643101318,"lng":104.13788406340932,"name":"贵州省威宁自治县龙街镇民生项目监督特派组组"},{"address":"贵州百里杜鹃大水彝族苗族布依族乡","id":"55543f10-1058-494f-9ad3-46e88f213c49","lat":27.209884,"lng":105.931775,"name":"贵州百里杜鹃大水彝族苗族布依族乡"},{"address":"县农牧局","id":"111aded9-46f9-43a2-90b4-da2e34abd864","lat":27.031738,"lng":106.048552,"name":"县农牧局"},{"address":"织金县文腾街道办事处","id":"94ed7f51-68fa-47a1-bd02-fb95d22de752","lat":26.681606,"lng":105.773619,"name":"织金县文腾街道办事处"},{"address":"贵州省织金县鸡场苗族彝族乡","id":"16271720-110b-414f-8d85-28fcf2e90010","lat":26.495804,"lng":105.381715,"name":"贵州省织金县鸡场苗族彝族乡"},{"address":"织金县八步街道办事处","id":"1848669e-87b0-4ccb-b9cb-a3f7040b52b0","lat":26.615333373403335,"lng":105.73204873020813,"name":"织金县八步街道办事处"},{"address":"贵州省纳雍县农牧局党组","id":"8d298924-20de-44d0-9324-0de6468526d4","lat":26.777725867343534,"lng":105.38750469669921,"name":"贵州省纳雍县农牧局党组"},{"address":"贵州省毕节金海湖新区（贵州毕节经济开发区）岔河镇武装部","id":"7fbcc005-bbac-45a1-a14e-1607a85061ae","lat":27.234485,"lng":105.437852,"name":"贵州省毕节金海湖新区（贵州毕节经济开发区）岔河镇武装部"},{"address":"贵州省毕节市八寨镇","id":"8372e008-55b8-4053-9fa1-036fa51af956","lat":27.418584,"lng":105.38157,"name":"贵州省毕节市八寨镇"},{"address":"贵州省织金县司法局","id":"8bfa293c-154d-4d4b-b8db-b02eacca709f","lat":26.669307,"lng":105.777694,"name":"贵州省织金县司法局"},{"address":"贵州省织金县金龙乡","id":"dd3c7de7-28f0-4af9-bd6d-bf7e612aee3c","lat":26.92069,"lng":105.687535,"name":"贵州省织金县金龙乡"},{"address":"贵州省赫章县司法局","id":"c8903db7-eaf2-45cc-9d7a-cd62d3f31a02","lat":27.12484,"lng":104.728994,"name":"贵州省赫章县司法局"},{"address":"贵州省毕节市碧阳街道办事处","id":"f5f4d06f-1df8-4e14-9a03-2a48ed9b3980","lat":27.287294,"lng":105.314886,"name":"贵州省毕节市碧阳街道办事处"},{"address":"贵州省金沙县鼓场街道人大工委","id":"eadb4211-b03c-4322-ab0d-b8f826ef34dc","lat":27.471542677861745,"lng":106.2268521592366,"name":"贵州省金沙县鼓场街道人大工委"},{"address":"贵州省黔西县新仁乡党委","id":"59b74e4d-1996-4fec-af98-c95968814126","lat":26.862163,"lng":106.105086,"name":"贵州省黔西县新仁乡党委"},{"address":"贵州省金沙县平坝镇","id":"7415b037-ca05-4096-ad80-b5c5f59b142c","lat":27.510746,"lng":106.162195,"name":"贵州省金沙县平坝镇"},{"address":"贵州省赫章县农牧局","id":"882cb837-99cb-4a89-a06c-5bfdd0a9ed05","lat":27.314817,"lng":105.286813,"name":"贵州省赫章县农牧局"},{"address":"贵州省金沙县禹谟镇人大主席团","id":"736c62b4-baed-4a29-a425-7f31f4d7afa0","lat":27.379880533365018,"lng":106.34043160103214,"name":"贵州省金沙县禹谟镇人大主席团"},{"address":"贵州省金沙县茶园镇宣传","id":"17ad8de9-592c-48b2-8441-98e5e34d9825","lat":27.471542677861745,"lng":106.2268521592366,"name":"贵州省金沙县茶园镇宣传"},{"address":"贵州省金沙县桂花乡人大","id":"4a9c77c3-0b57-47ad-9c17-6b81a15984f1","lat":27.56477128433808,"lng":106.09515990317803,"name":"贵州省金沙县桂花乡人大"},{"address":"贵州省毕节市七星关区田坝桥镇人民政府","id":"a1881020-4e01-4d77-b3b1-4d992ee04c4b","lat":27.367749,"lng":105.330329,"name":"贵州省毕节市七星关区田坝桥镇人民政府"},{"address":"贵州省毕节市社会科学界联合会","id":"536be44c-e50d-48c2-833f-ff037c89ef37","lat":0.0,"lng":0.0,"name":"贵州省毕节市社会科学界联合会"},{"address":"贵州省毕节市七星关区亮岩镇党委委员、纪委书记、民生项目监督亮岩镇特派组副组长","id":"be30412e-6e79-44fb-a4ad-c3d03edf9eb0","lat":27.638376294526516,"lng":105.48989769449123,"name":"贵州省毕节市七星关区亮岩镇党委委员、纪委书记、民生项目监督亮岩镇特派组副组长"},{"address":"贵州省赫章县计划生育协会","id":"850ee14d-9da6-46da-8065-709346acb5ea","lat":27.126067,"lng":104.731292,"name":"贵州省赫章县计划生育协会"},{"address":"贵州省毕节市七星关区行政学校","id":"0e4f43c3-b6d7-4c12-8a8f-ce39218b0bf2","lat":27.303709,"lng":105.320323,"name":"贵州省毕节市七星关区行政学校"},{"address":"贵州省黔西县莲城街道办事处","id":"7a732129-f3bf-47fc-adef-f7a592d5dd4e","lat":27.023544,"lng":106.04101,"name":"贵州省黔西县莲城街道办事处"},{"address":"贵州省金沙县柳塘镇人大主席团","id":"2b6618f8-7816-48ec-9ad2-f946a6addf31","lat":27.471542677861745,"lng":106.2268521592366,"name":"贵州省金沙县柳塘镇人大主席团"},{"address":"贵州省赫章县平山乡人民政府","id":"15caca75-2f89-41d2-bc1c-430336157f72","lat":27.16193,"lng":104.892117,"name":"贵州省赫章县平山乡人民政府"},{"address":"贵州毕节金海湖新区（贵州毕节经济开发区）响水乡","id":"2f5c21ad-3449-4132-8de8-b9a0fac21eb8","lat":27.234485,"lng":105.437852,"name":"贵州毕节金海湖新区（贵州毕节经济开发区）响水乡"},{"address":"贵州省织金县珠藏镇党委","id":"21e2b7a6-0c07-406b-8996-cf832c7c81c5","lat":26.544440873930924,"lng":105.70363277305434,"name":"贵州省织金县珠藏镇党委"},{"address":"贵州省毕节市织金县人大会常务委员","id":"6c2ae611-d99b-4ec4-93ba-5141c7e7d73a","lat":26.783625,"lng":105.389192,"name":"贵州省毕节市织金县人大会常务委员"},{"address":"贵州省大方县八堡乡人民政府","id":"7de9d389-6ce2-4c56-b498-fc24c83e7123","lat":27.417156,"lng":105.588211,"name":"贵州省大方县八堡乡人民政府"},{"address":"贵州金沙县人民政府","id":"3c9a9be3-4439-4db0-88aa-de1260ae7990","lat":27.464878,"lng":106.22661,"name":"贵州金沙县人民政府"},{"address":"贵州省黔西县太来彝族苗族乡党委","id":"acc1b5e3-45ee-47a3-be84-e5ee54c7c1e9","lat":27.063504301952968,"lng":106.350156256734,"name":"贵州省黔西县太来彝族苗族乡党委"},{"address":"中共贵州省毕节市纪委","id":"ee75d3bc-33ab-4715-b5ae-a8aa935126e6","lat":27.470541,"lng":106.235473,"name":"中共贵州省毕节市纪委"},{"address":"中共贵州省黔西县新仁乡纪委","id":"a8a6e629-4c14-4ed2-956b-050de5abe076","lat":26.861841938270715,"lng":106.10569743104408,"name":"中共贵州省黔西县新仁乡纪委"},{"address":"贵州省大方县果瓦乡人民政府","id":"5beb9ee6-aef0-4d23-a87c-b97fb0d35d64","lat":27.559989,"lng":105.830342,"name":"贵州省大方县果瓦乡人民政府"},{"address":"贵州省金沙县新化乡党委纪委","id":"014d4784-ecd9-4c54-bd8f-379d7fe50da1","lat":27.404900503193115,"lng":106.12188094378428,"name":"贵州省金沙县新化乡党委纪委"},{"address":"贵州省黔西县水西街道党工委","id":"abd7f4f4-785d-44fe-8ca4-c1e74bc0151d","lat":27.035214400154267,"lng":106.04109813219782,"name":"贵州省黔西县水西街道党工委"},{"address":"贵州省织金县官寨苗族乡委员会","id":"98a0b0a7-8e93-444f-873a-abff33191d68","lat":26.772788,"lng":105.89607,"name":"贵州省织金县官寨苗族乡委员会"},{"address":"贵州省金沙县新化苗族彝族满族乡党委","id":"2ef8edbf-d6fa-4f99-b77f-2868e37c3e58","lat":27.430974,"lng":106.163865,"name":"贵州省金沙县新化苗族彝族满族乡党委"},{"address":"贵州省黔西县大关镇人民政府","id":"eb75ff26-2dfb-4e1d-816f-0d9631336ff7","lat":26.86927,"lng":106.178229,"name":"贵州省黔西县大关镇人民政府"},{"address":"贵州省纳雍县勺窝镇人大","id":"6a8b2576-5182-4533-8944-a85aef3639f9","lat":26.783625,"lng":105.389192,"name":"贵州省纳雍县勺窝镇人大"},{"address":"贵州省金沙县岚头镇武装部","id":"c10a7227-6940-471f-9f09-6e7e138941cc","lat":27.41145273283544,"lng":106.51319050431353,"name":"贵州省金沙县岚头镇武装部"},{"address":"贵州省纳雍县董地苗族彝族乡计生协会","id":"8dad204f-592a-45d7-82e2-7838d4c379e4","lat":26.930479,"lng":105.263724,"name":"贵州省纳雍县董地苗族彝族乡计生协会"},{"address":"贵州省毕节市黔西县素朴镇党委","id":"206a052c-4e5c-496a-a52a-8fa0974ac0e8","lat":26.996288,"lng":106.354061,"name":"贵州省毕节市黔西县素朴镇党委"},{"address":"贵州省纳雍县维新镇纪委","id":"dd9509a9-4c3b-4c84-857f-3270d5357a92","lat":27.012221,"lng":105.205691,"name":"贵州省纳雍县维新镇纪委"},{"address":"贵州省金沙县安洛乡党委","id":"c52e63c6-05d9-479b-8165-30712ddbad54","lat":27.346478,"lng":106.100683,"name":"贵州省金沙县安洛乡党委"},{"address":"贵州省毕节市七星关区洪山街道办（社区）","id":"cde2d237-dc16-4c9f-b94f-27f5ebc5c16b","lat":27.299554,"lng":105.300357,"name":"贵州省毕节市七星关区洪山街道办（社区）"},{"address":"贵州省毕节市赫章县朱明乡人民政府","id":"c1bc0421-dd0a-4a7a-a55b-96a94c22a85f","lat":27.223502,"lng":104.549744,"name":"贵州省毕节市赫章县朱明乡人民政府"},{"address":"贵州省百里杜鹃鹏程管理区","id":"86d4633b-b803-44bd-8eda-6076a2499027","lat":27.23756,"lng":105.835974,"name":"贵州省百里杜鹃鹏程管理区"},{"address":"贵州省金沙县发展和改革局","id":"4722a297-3a38-474a-a36a-a859f87c5990","lat":27.46536,"lng":106.226713,"name":"贵州省金沙县发展和改革局"},{"address":"贵州省金沙县安底镇武装部","id":"0b3850e9-1d2d-44f1-b635-eebae993c019","lat":27.402098256557167,"lng":106.44041036054655,"name":"贵州省金沙县安底镇武装部"},{"address":"贵州省纳雍县发展和改革局","id":"061e9dd5-fb7a-4c26-aeee-a1c3a9fb91f1","lat":26.78314,"lng":105.389978,"name":"贵州省纳雍县发展和改革局"},{"address":"贵州省威宁自治县道路运输局（自治县道路运输执法大队）","id":"a1a473d3-3e65-41e5-9e44-525526fef286","lat":26.863764,"lng":104.29534,"name":"贵州省威宁自治县道路运输局（自治县道路运输执法大队）"},{"address":"贵州省织金县扶贫开发办公室","id":"ce634c34-e503-4730-b686-61a565ea32de","lat":27.308373,"lng":105.290532,"name":"贵州省织金县扶贫开发办公室"},{"address":"贵州省纳雍县民生监督委员会龙场镇民生特派组","id":"a0247af5-0121-46d2-87a4-23b0a3d17990","lat":26.85491185109495,"lng":105.25827515956831,"name":"贵州省纳雍县民生监督委员会龙场镇民生特派组"},{"address":"织金县三塘镇","id":"f6dc1aa8-69f7-41b4-ab0f-83074738f5a2","lat":26.577699,"lng":105.555211,"name":"织金县三塘镇"},{"address":"贵州省金海湖新区（贵州毕节经济开发区）双山镇","id":"aff30e42-abef-44ff-9e09-6e2f77bf9b7b","lat":27.234485,"lng":105.437852,"name":"贵州省金海湖新区（贵州毕节经济开发区）双山镇"},{"address":"贵州省毕节市七星关区千溪乡","id":"900a460c-22d6-4627-b379-0c319f861a2e","lat":27.1861,"lng":105.229326,"name":"贵州省毕节市七星关区千溪乡"},{"address":"贵州省毕节毕节市七星关区小吉场镇人民政府","id":"d4bc9f71-a72c-4e20-90d6-eb92575c34a7","lat":27.515923,"lng":105.524804,"name":"贵州省毕节毕节市七星关区小吉场镇人民政府"},{"address":"贵州省金沙县太平彝族苗族乡纪委","id":"f3ff3636-669e-4fc4-8179-fb09bfcbfaab","lat":27.594799736554243,"lng":105.9237309034749,"name":"贵州省金沙县太平彝族苗族乡纪委"},{"address":"贵州省纳雍县董地苗族彝族乡政府","id":"3600d5ca-abd9-49e9-9372-9745c2d91336","lat":27.003575,"lng":105.197864,"name":"贵州省纳雍县董地苗族彝族乡政府"},{"address":"贵州省毕节市织金县上坪寨乡党委","id":"6220de75-0de9-43ef-bda5-230a49696aae","lat":26.47602,"lng":106.037637,"name":"贵州省毕节市织金县上坪寨乡党委"},{"address":"贵州省金沙县太平彝族苗族乡人民统战部","id":"2bec08c7-6890-4e9c-a042-312af5465458","lat":27.594799736554243,"lng":105.9237309034749,"name":"贵州省金沙县太平彝族苗族乡人民统战部"},{"address":"黔西县大关镇党委","id":"1d213702-4383-4970-92ee-c61b31a2729e","lat":26.869264,"lng":106.17822,"name":"黔西县大关镇党委"},{"address":"贵州省威宁自治县工业经济和能源局","id":"d73be347-6337-4d92-8261-78d5a69668bd","lat":26.86527,"lng":104.291775,"name":"贵州省威宁自治县工业经济和能源局"},{"address":"贵州省威宁自治县委六桥街道工作委员会","id":"cf413c74-1576-4761-8a2d-797da3dc688c","lat":26.866721,"lng":104.300062,"name":"贵州省威宁自治县委六桥街道工作委员会"},{"address":"贵州省毕节市七星关区观音桥街道办事处","id":"e817422e-0b45-46b6-8d9d-d245b4856a0c","lat":27.29403,"lng":105.316792,"name":"贵州省毕节市七星关区观音桥街道办事处"},{"address":"贵州省金沙县纪委第四纪工委","id":"92e3d805-1429-4edf-becb-28c58b2e87fb","lat":27.470541,"lng":106.235473,"name":"贵州省金沙县纪委第四纪工委"},{"address":"贵州省赫章县结构乡","id":"a43ecc04-7d75-405b-a033-f5dc8332b312","lat":27.312993,"lng":104.59324,"name":"贵州省赫章县结构乡"},{"address":"贵州省毕节金海湖新区（贵州毕节经济开发区）岔河镇纪委","id":"18abda21-ebb5-47ba-8a1a-f5b58ae90703","lat":27.234485,"lng":105.437852,"name":"贵州省毕节金海湖新区（贵州毕节经济开发区）岔河镇纪委"},{"address":"贵州省化织金县化起镇人民政府","id":"489e7ddf-bd1e-4f29-b868-7ebdba31a87a","lat":26.706938,"lng":106.02045,"name":"贵州省化织金县化起镇人民政府"},{"address":"贵州省大方县顺德新区管理委员会","id":"3d3b593f-8390-4279-b22d-410f319a1788","lat":27.16824785787309,"lng":105.60579912846991,"name":"贵州省大方县顺德新区管理委员会"},{"address":"贵州省黔西县太来乡人民政府","id":"98f07608-8108-48c1-abc4-6dcdeed8be76","lat":27.063123,"lng":106.349563,"name":"贵州省黔西县太来乡人民政府"},{"address":"贵州省金沙县石场苗族彝族乡政府","id":"baa7135d-5c69-429b-b3cd-e49cb8c316fd","lat":27.564774,"lng":106.095237,"name":"贵州省金沙县石场苗族彝族乡政府"},{"address":"贵州省毕节市七星关区八寨镇政府","id":"38da22b8-bf36-482f-948c-7c414412f374","lat":27.418584,"lng":105.38157,"name":"贵州省毕节市七星关区八寨镇政府"},{"address":"贵州省威宁自治县黑土河镇人民政府","id":"88ccc979-d676-4b6f-8d79-ad5d464cc050","lat":27.252384,"lng":103.918112,"name":"贵州省威宁自治县黑土河镇人民政府"},{"address":"贵州省毕节市七星关区市东片区监察分局","id":"174c310e-f289-4588-9fa5-93035f8a3a1d","lat":27.464053316004616,"lng":105.42355760083845,"name":"贵州省毕节市七星关区市东片区监察分局"},{"address":"贵州省黔西县武装部","id":"5e9126ab-ea91-4356-ae48-6d0148a8c67f","lat":27.010249,"lng":106.050445,"name":"贵州省黔西县武装部"},{"address":"贵州省毕节市纳雍县阳长镇党委","id":"8e700cf6-bf3b-47f4-b588-fdc412d246b3","lat":26.629157807198307,"lng":105.19269699068275,"name":"贵州省毕节市纳雍县阳长镇党委"},{"address":"贵州省大方县核桃乡","id":"92ad407e-0c10-45b9-b877-255d331250f0","lat":27.304488,"lng":105.630187,"name":"贵州省大方县核桃乡"},{"address":"贵州省纳雍县董地苗族彝族乡人民政府","id":"b44dc3ae-3d35-467c-a24e-2fbc494a957b","lat":27.009871,"lng":105.199747,"name":"贵州省纳雍县董地苗族彝族乡人民政府"},{"address":"贵州省织金县产业园区管委会","id":"7650bd9d-cc38-4faa-82d5-9ac922d15fbf","lat":26.705005,"lng":105.84502,"name":"贵州省织金县产业园区管委会"},{"address":"贵州省节市威宁自治县盐仓镇","id":"242696ac-b543-41de-b1f2-6ee6c0fc9851","lat":26.912946643101318,"lng":104.13788406340932,"name":"贵州省节市威宁自治县盐仓镇"},{"address":"贵州省毕节市七星关区市西街道","id":"92f1de93-7469-4aa9-a4bf-529213e5e42e","lat":27.314841,"lng":105.293802,"name":"贵州省毕节市七星关区市西街道"},{"address":"贵州省织金县民政局","id":"81b32a29-be6c-4c24-9388-dbee9980c533","lat":26.678879,"lng":105.786218,"name":"贵州省织金县民政局"},{"address":"贵州省赫章县珠市彝族乡政府","id":"5cf0dbd5-8730-4bde-8760-cbd765b0c739","lat":26.920101,"lng":104.675545,"name":"贵州省赫章县珠市彝族乡政府"},{"address":"贵州省威宁自治县玉龙镇","id":"a03c988d-bf72-46f1-b2cb-4ffb8cae3027","lat":27.071944,"lng":103.742703,"name":"贵州省威宁自治县玉龙镇"},{"address":"贵州省大方县猫场镇纪委","id":"8adc9fac-32e2-403e-a6c6-470dd283311a","lat":26.9894,"lng":105.356445,"name":"贵州省大方县猫场镇纪委"},{"address":"贵州省赫章县监察局","id":"0348f016-852b-4434-859c-0bd798c6e473","lat":27.314009,"lng":105.294027,"name":"贵州省赫章县监察局"},{"address":"贵州省纳雍县玉龙坝镇人大","id":"50118fac-e1eb-451e-9b04-fcb5e66a2480","lat":26.839143,"lng":105.536947,"name":"贵州省纳雍县玉龙坝镇人大"},{"address":"贵州省赫章县人民检察院政工科","id":"00d29c18-ee5c-40aa-a355-d7ce7d8687de","lat":27.13061307037733,"lng":104.7421507349287,"name":"贵州省赫章县人民检察院政工科"},{"address":"贵州省毕节市七星关区委统战部","id":"763d1a98-c224-4d63-8381-d844d44f1463","lat":27.30416540128955,"lng":105.31162060915884,"name":"贵州省毕节市七星关区委统战部"},{"address":"贵州省毕节金海湖新区（贵州毕节经济开发区）响水乡政府","id":"0cb5db3b-51d2-4366-a839-89ce6fa21500","lat":27.234485,"lng":105.437852,"name":"贵州省毕节金海湖新区（贵州毕节经济开发区）响水乡政府"},{"address":"贵州省黔西县扶贫开发办公室","id":"ae882e11-8341-443b-af5c-aa3d54fbe9f4","lat":27.308373,"lng":105.290532,"name":"贵州省黔西县扶贫开发办公室"},{"address":"贵州省毕节市七星关去千溪乡党委","id":"bf4ee57a-cd89-447c-96c3-d6064cad225c","lat":27.182899,"lng":105.220646,"name":"贵州省毕节市七星关去千溪乡党委"},{"address":"贵州省威宁自治县总工会","id":"f223d6aa-836d-4bf5-993e-a2ad48df6831","lat":26.865146,"lng":104.288543,"name":"贵州省威宁自治县总工会"},{"address":"贵州省毕节市中级人民法院","id":"cbb8c170-28f0-4647-b5e0-6b357c64bdfd","lat":27.304828,"lng":105.293682,"name":"贵州省毕节市中级人民法院"},{"address":"贵州省金沙县柳塘镇人民政府","id":"76cc4d5c-1594-4b97-96e4-676aa0a50976","lat":27.420465,"lng":106.245682,"name":"贵州省金沙县柳塘镇人民政府"},{"address":"贵州省赫章县白果镇","id":"d87cf573-11a0-4d24-9ce4-e829527e0d6c","lat":27.111586,"lng":104.698108,"name":"贵州省赫章县白果镇"},{"address":"贵州省黔西县素朴镇","id":"9a6531cd-33db-4a9e-a490-1f224515244b","lat":26.996288,"lng":106.35406,"name":"贵州省黔西县素朴镇"},{"address":"贵州省纳雍县骔岭镇党委","id":"445f25c9-f0ee-4bb4-90c7-a12513d664dd","lat":26.71430666738494,"lng":105.27358275436876,"name":"贵州省纳雍县骔岭镇党委"},{"address":"贵州省纳雍县文体广电旅游局（新闻出版局、版权局）党组","id":"6f77ffb9-c94f-43bc-947e-d8eb89c4c57f","lat":26.795102083008498,"lng":105.26868668571373,"name":"贵州省纳雍县文体广电旅游局（新闻出版局、版权局）党组"},{"address":"贵州省金沙县工业经济和能源局（商务局）","id":"3dbda190-818e-471f-a33d-2c820c75427e","lat":27.465647,"lng":106.226622,"name":"贵州省金沙县工业经济和能源局（商务局）"},{"address":"贵州省威宁自治县金斗镇","id":"64e81e4d-77d7-4d58-a999-199065672568","lat":26.680378,"lng":104.297738,"name":"贵州省威宁自治县金斗镇"},{"address":"贵州省毕节市七星关清水铺镇党委","id":"23961e0c-20c3-41f0-a1fe-5add07ecc715","lat":27.669307375499983,"lng":105.56174454105401,"name":"贵州省毕节市七星关清水铺镇党委"},{"address":"贵州百里杜鹃管理区管理委员会","id":"09e3b296-6d72-42cd-9264-4db601b5504c","lat":27.228697,"lng":105.846785,"name":"贵州百里杜鹃管理区管理委员会"},{"address":"贵州省百里杜鹃管理区大水彝族苗族布依族乡","id":"5e4876f1-374a-4db0-8e46-978bb795ebdc","lat":27.266462,"lng":105.993584,"name":"贵州省百里杜鹃管理区大水彝族苗族布依族乡"},{"address":"贵州省金沙县政法委","id":"365bf633-c066-4a62-bb17-bb0acfba4d9d","lat":27.510859,"lng":106.162285,"name":"贵州省金沙县政法委"},{"address":"贵州省毕节市第二届人大常委会","id":"6ce6ace7-b3ea-4211-8d7d-fb4cfbf1d994","lat":0.0,"lng":0.0,"name":"贵州省毕节市第二届人大常委会"},{"address":"贵州省金沙县岚头镇政法委","id":"81369a20-8018-4203-99d2-1a214628a6c7","lat":27.41145273283544,"lng":106.51319050431353,"name":"贵州省金沙县岚头镇政法委"},{"address":"贵州省黔西县雨朵镇","id":"740a7c36-c458-4490-b2f3-9a2d7948179a","lat":26.909461,"lng":106.048372,"name":"贵州省黔西县雨朵镇"},{"address":"贵州省纳雍县乐治镇政府","id":"a186b09f-ac0e-431e-ac36-62925615af86","lat":26.838818,"lng":105.478614,"name":"贵州省纳雍县乐治镇政府"},{"address":"贵州省威宁自治县雪山镇","id":"28a82ede-665f-4952-825b-1a298573232a","lat":27.078441,"lng":104.133766,"name":"贵州省威宁自治县雪山镇"},{"address":"贵州省金沙县财政局党组","id":"2c337f2e-6a3b-4dd6-ba6e-32fe91b7787c","lat":27.465361,"lng":106.226632,"name":"贵州省金沙县财政局党组"},{"address":"贵州省织金县鸡场乡","id":"5ddfb681-8eb7-4e13-82af-3f5ff5d6be4f","lat":26.495804,"lng":105.381715,"name":"贵州省织金县鸡场乡"},{"address":"贵州省纳雍县百兴镇","id":"bbb5cb70-75d4-42b7-8758-5c5b0bb51ea7","lat":26.558117,"lng":105.280827,"name":"贵州省纳雍县百兴镇"},{"address":"贵州省纳雍县勺窝镇党委","id":"819e464d-12e4-4578-a568-e6edd42c33df","lat":26.795102083008498,"lng":105.26868668571373,"name":"贵州省纳雍县勺窝镇党委"},{"address":"贵州省金沙县岩孔街道党工委","id":"a77694f2-c041-40fa-8a11-0d6a8e0d2ed9","lat":27.36152179930772,"lng":106.63769428522589,"name":"贵州省金沙县岩孔街道党工委"},{"address":"贵州省赫章县结构彝族苗族乡","id":"141677c0-2dfe-410b-bc22-4f3e42e6bee8","lat":27.261711,"lng":104.476415,"name":"贵州省赫章县结构彝族苗族乡"},{"address":"贵州省织金县八步街道","id":"219576a7-5c58-43e4-b60a-ed2af6c15b4c","lat":26.832331,"lng":105.810071,"name":"贵州省织金县八步街道"},{"address":"贵州省金沙县岩孔街道人大工委","id":"850bae03-af10-4534-8066-e45c4b7f576c","lat":27.36152179930772,"lng":106.63769428522589,"name":"贵州省金沙县岩孔街道人大工委"},{"address":"贵州省织金县八步街道办事处","id":"4d4bec42-08e5-4f3a-b38f-6c6815f64596","lat":26.615333373403335,"lng":105.73204873020813,"name":"贵州省织金县八步街道办事处"},{"address":"贵州省纳雍县勺窝镇人民政府","id":"a084f564-34b0-4c72-ba8f-97d5ed991d20","lat":26.784054,"lng":105.38944,"name":"贵州省纳雍县勺窝镇人民政府"},{"address":"贵州省毕节市七星关区大银镇","id":"c9dd035b-116f-4ec4-b6ae-c1ed3532c8ba","lat":27.569485,"lng":105.309965,"name":"贵州省毕节市七星关区大银镇"},{"address":"贵州省织金县白泥乡","id":"f1ccdff5-7cc5-43db-99ba-d2348b714777","lat":26.396621,"lng":105.545819,"name":"贵州省织金县白泥乡"},{"address":"贵州省金沙县安底镇人民政府","id":"f45357ea-dfb8-4ae2-b2fe-a31860662635","lat":27.402098,"lng":106.44041,"name":"贵州省金沙县安底镇人民政府"},{"address":"贵州省黔西县金碧镇人民政府","id":"18842278-6fe5-41cf-a8fc-3e6cd7e5f2f0","lat":26.942687,"lng":105.974062,"name":"贵州省黔西县金碧镇人民政府"},{"address":"贵州省纳雍县厍东关乡","id":"975e1ffa-e857-478e-8d2c-21662ab944dd","lat":27.092304,"lng":105.248384,"name":"贵州省纳雍县厍东关乡"},{"address":"贵州省金沙县大田彝族苗族布依族乡政府","id":"fbdc6479-ace8-49d0-a486-a4a9f474134f","lat":27.40122,"lng":106.055672,"name":"贵州省金沙县大田彝族苗族布依族乡政府"},{"address":"贵州省官寨乡委员会","id":"212154a0-9c4e-4da7-8925-ec1f6fd217b3","lat":26.773242,"lng":105.878492,"name":"贵州省官寨乡委员会"},{"address":"贵州省金沙县岚头镇","id":"f79609d1-a81f-4c54-b5cc-ecc657379635","lat":27.411452,"lng":106.513189,"name":"贵州省金沙县岚头镇"},{"address":"贵州省黔西县协和镇人民政府","id":"5e6a7d7d-4e58-4b5b-b531-7ef2930285bf","lat":27.068381,"lng":106.267667,"name":"贵州省黔西县协和镇人民政府"},{"address":"贵州省金沙县茶园镇党委","id":"cdca7df6-aeb3-464a-889f-5f78f2bfb975","lat":27.471542677861745,"lng":106.2268521592366,"name":"贵州省金沙县茶园镇党委"},{"address":"贵州省大方县六龙镇","id":"0059bdd7-fb50-4698-aae1-1e51ec51fb00","lat":27.174173,"lng":105.705793,"name":"贵州省大方县六龙镇"},{"address":"贵州省黔西县金碧镇人大","id":"755d442d-0ed7-4fbc-80ba-58e73b0372cd","lat":26.93787483149939,"lng":105.96986880150341,"name":"贵州省黔西县金碧镇人大"},{"address":"贵州省金沙县人大常委会党组","id":"2ae51980-8b32-4e91-a886-60bb7a30194d","lat":27.465364,"lng":106.226675,"name":"贵州省金沙县人大常委会党组"},{"address":"贵州省大方县牛场苗族彝族乡人民政府政法委","id":"b27a7abd-245f-46f0-93cf-5120b804315f","lat":26.924878248250998,"lng":105.56739452248941,"name":"贵州省大方县牛场苗族彝族乡人民政府政法委"},{"address":"贵州省大方县牛场苗族彝族乡人民政府","id":"cfb6cee8-4669-4203-83f1-2e5bb2ff0ec0","lat":26.951997,"lng":105.495934,"name":"贵州省大方县牛场苗族彝族乡人民政府"},{"address":"贵州省大方县农牧局","id":"ae9a306b-c055-4669-80f4-ac96455d4dc1","lat":27.151542,"lng":105.61193,"name":"贵州省大方县农牧局"}],"type":"leadershipLocation","version":"ops-dvp-dev.1.0.0"}